{
"type": "FeatureCollection",
"features": [
{ "type": "Feature", "properties": { "place_id": "ChIJEz-hVowOZ0gRUzIA23OzlnI", "latitude": 53.349314, "longitude": -6.244549, "type": "doctor", "ED_ID": "268109" }, "geometry": { "type": "Point", "coordinates": [ -6.244549, 53.349314 ] } },
{ "type": "Feature", "properties": { "place_id": "ChIJV45VmXQPZ0gRGi62tS-6fzQ", "latitude": 53.3494841, "longitude": -6.2448512, "type": "doctor", "ED_ID": "268109" }, "geometry": { "type": "Point", "coordinates": [ -6.2448512, 53.349484100000012 ] } },
{ "type": "Feature", "properties": { "place_id": "ChIJoVtd7jYPZ0gRIpq6MOiqTmg", "latitude": 53.3495166, "longitude": -6.2456387, "type": "doctor", "ED_ID": "268109" }, "geometry": { "type": "Point", "coordinates": [ -6.2456387, 53.349516599999987 ] } },
{ "type": "Feature", "properties": { "place_id": "ChIJH1OGzY0OZ0gRXtG7NGItip0", "latitude": 53.3486877, "longitude": -6.247086, "type": "doctor", "ED_ID": "268109" }, "geometry": { "type": "Point", "coordinates": [ -6.247086, 53.3486877 ] } },
{ "type": "Feature", "properties": { "place_id": "ChIJfYGcQO0OZ0gRUo-z2Kk3EG8", "latitude": 53.3452321, "longitude": -6.2389536, "type": "doctor", "ED_ID": "268143" }, "geometry": { "type": "Point", "coordinates": [ -6.2389536, 53.3452321 ] } },
{ "type": "Feature", "properties": { "place_id": "ChIJVy5vyZEOZ0gRpdZmPPfkL5I", "latitude": 53.3449734, "longitude": -6.2495796, "type": "doctor", "ED_ID": "268096" }, "geometry": { "type": "Point", "coordinates": [ -6.2495796, 53.3449734 ] } },
{ "type": "Feature", "properties": { "place_id": "ChIJ8Ug8ivoPZ0gRL8NB99XZaAk", "latitude": 53.3449049, "longitude": -6.2497321, "type": "doctor", "ED_ID": "268096" }, "geometry": { "type": "Point", "coordinates": [ -6.2497321, 53.3449049 ] } },
{ "type": "Feature", "properties": { "place_id": "ChIJ-U6xEL4OZ0gRhqblEyK6kZs", "latitude": 53.347814, "longitude": -6.2332589, "type": "doctor", "ED_ID": "268108" }, "geometry": { "type": "Point", "coordinates": [ -6.2332589, 53.347814 ] } },
{ "type": "Feature", "properties": { "place_id": "ChIJPaoySo8OZ0gR1db2N_DGe_0", "latitude": 53.3509807, "longitude": -6.2539685, "type": "doctor", "ED_ID": "268104" }, "geometry": { "type": "Point", "coordinates": [ -6.2539685, 53.3509807 ] } },
{ "type": "Feature", "properties": { "place_id": "ChIJrbXcYb0PZ0gRwNIQp96aDOE", "latitude": 53.3507531, "longitude": -6.254143, "type": "doctor", "ED_ID": "268104" }, "geometry": { "type": "Point", "coordinates": [ -6.254143, 53.3507531 ] } },
{ "type": "Feature", "properties": { "place_id": "ChIJ0SJaX30PZ0gRtoZ5UQnLiwY", "latitude": 53.3454362, "longitude": -6.2531086, "type": "doctor", "ED_ID": "268096" }, "geometry": { "type": "Point", "coordinates": [ -6.2531086, 53.3454362 ] } },
{ "type": "Feature", "properties": { "place_id": "ChIJrbJwB5EOZ0gR3YV1ziv7JyY", "latitude": 53.343294, "longitude": -6.249632, "type": "health", "ED_ID": "268096" }, "geometry": { "type": "Point", "coordinates": [ -6.249632, 53.343294 ] } },
{ "type": "Feature", "properties": { "place_id": "ChIJGbObHP4PZ0gRRudPG2xT70g", "latitude": 53.3426966, "longitude": -6.2491791, "type": "doctor", "ED_ID": "268096" }, "geometry": { "type": "Point", "coordinates": [ -6.2491791, 53.3426966 ] } },
{ "type": "Feature", "properties": { "place_id": "ChIJpz_XmpoOZ0gR5GAO1DcqmL8", "latitude": 53.3445187, "longitude": -6.2534406, "type": "doctor", "ED_ID": "268096" }, "geometry": { "type": "Point", "coordinates": [ -6.2534406, 53.344518699999988 ] } },
{ "type": "Feature", "properties": { "place_id": "ChIJyx0jUI8OZ0gR-xP8p3qVBbM", "latitude": 53.3503903, "longitude": -6.2559747, "type": "health", "ED_ID": "268106" }, "geometry": { "type": "Point", "coordinates": [ -6.2559747, 53.3503903 ] } },
{ "type": "Feature", "properties": { "place_id": "ChIJP6rA8IUOZ0gRBDsrgw7cc3M", "latitude": 53.3503497, "longitude": -6.2560682, "type": "health", "ED_ID": "268106" }, "geometry": { "type": "Point", "coordinates": [ -6.2560682, 53.3503497 ] } },
{ "type": "Feature", "properties": { "place_id": "ChIJ0Y0JfPYOZ0gRfMz4yIa3234", "latitude": 53.3552854, "longitude": -6.2349225, "type": "doctor", "ED_ID": "268108" }, "geometry": { "type": "Point", "coordinates": [ -6.2349225, 53.3552854 ] } },
{ "type": "Feature", "properties": { "place_id": "ChIJVWOBWFMPZ0gREEat4O7z3QA", "latitude": 53.3559059, "longitude": -6.2518803, "type": "doctor", "ED_ID": "268104" }, "geometry": { "type": "Point", "coordinates": [ -6.2518803, 53.3559059 ] } },
{ "type": "Feature", "properties": { "place_id": "ChIJE17d3IkOZ0gR2JJH_wUyrt0", "latitude": 53.3559099, "longitude": -6.2518961, "type": "doctor", "ED_ID": "268104" }, "geometry": { "type": "Point", "coordinates": [ -6.2518961, 53.3559099 ] } },
{ "type": "Feature", "properties": { "place_id": "ChIJKdDoBo8PZ0gRyFQ94W_aLVA", "latitude": 53.3482718, "longitude": -6.2581996, "type": "doctor", "ED_ID": "268106" }, "geometry": { "type": "Point", "coordinates": [ -6.2581996, 53.3482718 ] } },
{ "type": "Feature", "properties": { "place_id": "ChIJ6xfFhBUMZ0gR3wZ1fzpftWw", "latitude": 53.3411217, "longitude": -6.2511332, "type": "doctor", "ED_ID": "268097" }, "geometry": { "type": "Point", "coordinates": [ -6.2511332, 53.3411217 ] } },
{ "type": "Feature", "properties": { "place_id": "ChIJ4_XFyJAOZ0gRJNSfthNfhWE", "latitude": 53.3411217, "longitude": -6.2511332, "type": "doctor", "ED_ID": "268097" }, "geometry": { "type": "Point", "coordinates": [ -6.2511332, 53.3411217 ] } },
{ "type": "Feature", "properties": { "place_id": "ChIJt9sI-HYPZ0gRKqraVWZEdc4", "latitude": 53.3414709, "longitude": -6.2521763, "type": "doctor", "ED_ID": "268097" }, "geometry": { "type": "Point", "coordinates": [ -6.2521763, 53.3414709 ] } },
{ "type": "Feature", "properties": { "place_id": "ChIJG_iNu5AOZ0gR_4MEw3QevW8", "latitude": 53.3414709, "longitude": -6.2521763, "type": "doctor", "ED_ID": "268097" }, "geometry": { "type": "Point", "coordinates": [ -6.2521763, 53.3414709 ] } },
{ "type": "Feature", "properties": { "place_id": "ChIJz4Z0-YQOZ0gR_FwEGQhY7iA", "latitude": 53.3480003, "longitude": -6.2590019, "type": "health", "ED_ID": "268106" }, "geometry": { "type": "Point", "coordinates": [ -6.2590019, 53.3480003 ] } },
{ "type": "Feature", "properties": { "place_id": "ChIJz4Z0-YQOZ0gREz7CeqRNYLk", "latitude": 53.348, "longitude": -6.259002, "type": "doctor", "ED_ID": "268106" }, "geometry": { "type": "Point", "coordinates": [ -6.259002, 53.348 ] } },
{ "type": "Feature", "properties": { "place_id": "ChIJW3hWrYcOZ0gR-5WoAFJcQu8", "latitude": 53.3536004, "longitude": -6.2587442, "type": "doctor", "ED_ID": "268138" }, "geometry": { "type": "Point", "coordinates": [ -6.2587442, 53.3536004 ] } },
{ "type": "Feature", "properties": { "place_id": "ChIJxeO3VZoOZ0gRRiyjvP-U6bc", "latitude": 53.3427151, "longitude": -6.2574859, "type": "doctor", "ED_ID": "268097" }, "geometry": { "type": "Point", "coordinates": [ -6.2574859, 53.3427151 ] } },
{ "type": "Feature", "properties": { "place_id": "ChIJr4r1GesOZ0gRtfS6tnKT4qI", "latitude": 53.3391991, "longitude": -6.2363043, "type": "health", "ED_ID": "268115" }, "geometry": { "type": "Point", "coordinates": [ -6.2363043, 53.339199099999988 ] } },
{ "type": "Feature", "properties": { "place_id": "ChIJe7Ciq28PZ0gR1sXAqFc6nN4", "latitude": 53.3457611, "longitude": -6.2641585, "type": "doctor", "ED_ID": "268140" }, "geometry": { "type": "Point", "coordinates": [ -6.2641585, 53.3457611 ] } },
{ "type": "Feature", "properties": { "place_id": "ChIJT56OCZwOZ0gRanL_1_u1fcw", "latitude": 53.3411188, "longitude": -6.2603494, "type": "doctor", "ED_ID": "268097" }, "geometry": { "type": "Point", "coordinates": [ -6.2603494, 53.3411188 ] } },
{ "type": "Feature", "properties": { "place_id": "ChIJETJJIGMOZ0gRl-cAyALHrbg", "latitude": 53.3594396, "longitude": -6.2561266, "type": "doctor", "ED_ID": "268010" }, "geometry": { "type": "Point", "coordinates": [ -6.2561266, 53.359439599999988 ] } },
{ "type": "Feature", "properties": { "place_id": "ChIJi9XuLoMOZ0gRJOITr8WdqDk", "latitude": 53.3456655, "longitude": -6.26457, "type": "health", "ED_ID": "268140" }, "geometry": { "type": "Point", "coordinates": [ -6.26457, 53.3456655 ] } },
{ "type": "Feature", "properties": { "place_id": "ChIJx2prZuoOZ0gRYpzz1PIPVSo", "latitude": 53.3373203, "longitude": -6.2339764, "type": "health", "ED_ID": "268115" }, "geometry": { "type": "Point", "coordinates": [ -6.2339764, 53.337320299999988 ] } },
{ "type": "Feature", "properties": { "place_id": "ChIJt7v9Ip0OZ0gRaDROc-vjsfk", "latitude": 53.344039, "longitude": -6.2651859, "type": "health", "ED_ID": "268140" }, "geometry": { "type": "Point", "coordinates": [ -6.2651859, 53.344039 ] } },
{ "type": "Feature", "properties": { "place_id": "ChIJHy6ogl4OZ0gRH4QmTuBIDzo", "latitude": 53.3628291, "longitude": -6.2389983, "type": "doctor", "ED_ID": "268049" }, "geometry": { "type": "Point", "coordinates": [ -6.2389983, 53.3628291 ] } },
{ "type": "Feature", "properties": { "place_id": "ChIJdSVnqF4OZ0gRap-VgQqaOT8", "latitude": 53.3628134, "longitude": -6.2378752, "type": "doctor", "ED_ID": "268049" }, "geometry": { "type": "Point", "coordinates": [ -6.2378752, 53.3628134 ] } },
{ "type": "Feature", "properties": { "place_id": "ChIJKUHKNJwOZ0gRv-y2ozKOwQk", "latitude": 53.3406686, "longitude": -6.2637945, "type": "health", "ED_ID": "268141" }, "geometry": { "type": "Point", "coordinates": [ -6.2637945, 53.3406686 ] } },
{ "type": "Feature", "properties": { "place_id": "ChIJhUcgTp0OZ0gR6MoswhMI1l0", "latitude": 53.3446925, "longitude": -6.2672666, "type": "doctor", "ED_ID": "268140" }, "geometry": { "type": "Point", "coordinates": [ -6.2672666, 53.3446925 ] } },
{ "type": "Feature", "properties": { "place_id": "ChIJCyS6f4IOZ0gRztnhcPitBx0", "latitude": 53.3478601, "longitude": -6.2687253, "type": "doctor", "ED_ID": "268106" }, "geometry": { "type": "Point", "coordinates": [ -6.2687253, 53.3478601 ] } },
{ "type": "Feature", "properties": { "place_id": "ChIJCXG8iYQOZ0gRE0TL6wYmXRs", "latitude": 53.348061, "longitude": -6.260714, "type": "doctor", "ED_ID": "268106" }, "geometry": { "type": "Point", "coordinates": [ -6.260714, 53.348061 ] } },
{ "type": "Feature", "properties": { "place_id": "ChIJ62YYTpYOZ0gRbCoQDxWN7eg", "latitude": 53.3377124, "longitude": -6.2486494, "type": "doctor", "ED_ID": "268097" }, "geometry": { "type": "Point", "coordinates": [ -6.2486494, 53.3377124 ] } },
{ "type": "Feature", "properties": { "place_id": "ChIJiwG4q5sOZ0gRHxTpoFiqjVk", "latitude": 53.3410186, "longitude": -6.2596173, "type": "doctor", "ED_ID": "268097" }, "geometry": { "type": "Point", "coordinates": [ -6.2596173, 53.3410186 ] } },
{ "type": "Feature", "properties": { "place_id": "ChIJUVWzRY8OZ0gRX8j63PIiUyQ", "latitude": 53.3522482, "longitude": -6.2638838, "type": "doctor", "ED_ID": "268139" }, "geometry": { "type": "Point", "coordinates": [ -6.2638838, 53.3522482 ] } },
{ "type": "Feature", "properties": { "place_id": "ChIJcfNeI4IOZ0gR368q2nO3PtE", "latitude": 53.3499702, "longitude": -6.2671997, "type": "health", "ED_ID": "268106" }, "geometry": { "type": "Point", "coordinates": [ -6.2671997, 53.349970199999987 ] } },
{ "type": "Feature", "properties": { "place_id": "ChIJe31h2b0OZ0gRW3NOb8tcEOQ", "latitude": 53.3338722, "longitude": -6.2445916, "type": "health", "ED_ID": "268117" }, "geometry": { "type": "Point", "coordinates": [ -6.2445916, 53.333872199999988 ] } },
{ "type": "Feature", "properties": { "place_id": "ChIJjbb8y38OZ0gRHbBhrQ4bsXA", "latitude": 53.3569835, "longitude": -6.2678268, "type": "doctor", "ED_ID": "268081" }, "geometry": { "type": "Point", "coordinates": [ -6.2678268, 53.3569835 ] } },
{ "type": "Feature", "properties": { "place_id": "ChIJBWHZTH4OZ0gRSikU0soc8pw", "latitude": 53.3577911, "longitude": -6.2675584, "type": "doctor", "ED_ID": "268081" }, "geometry": { "type": "Point", "coordinates": [ -6.2675584, 53.3577911 ] } },
{ "type": "Feature", "properties": { "place_id": "ChIJBWaI3qIOZ0gRJSEu4pXpW6o", "latitude": 53.3325955, "longitude": -6.2527021, "type": "doctor", "ED_ID": "268143" }, "geometry": { "type": "Point", "coordinates": [ -6.2527021, 53.3325955 ] } },
{ "type": "Feature", "properties": { "place_id": "ChIJeWZ7KBIPZ0gRwWzALO187Qg", "latitude": 53.3321454, "longitude": -6.2532527, "type": "doctor", "ED_ID": "268142" }, "geometry": { "type": "Point", "coordinates": [ -6.2532527, 53.332145399999987 ] } },
{ "type": "Feature", "properties": { "place_id": "ChIJAeESmXsOZ0gRdoQAKlp3QlM", "latitude": 53.3626242, "longitude": -6.2626043, "type": "doctor", "ED_ID": "268029" }, "geometry": { "type": "Point", "coordinates": [ -6.2626043, 53.3626242 ] } },
{ "type": "Feature", "properties": { "place_id": "ChIJS1zMdvEPZ0gRi7B6jwvAnOQ", "latitude": 53.3669798, "longitude": -6.2557601, "type": "doctor", "ED_ID": "268028" }, "geometry": { "type": "Point", "coordinates": [ -6.2557601, 53.3669798 ] } },
{ "type": "Feature", "properties": { "place_id": "ChIJn9vlo90OZ0gR8cAv_Nr-RXc", "latitude": 53.335192, "longitude": -6.2194721, "type": "health", "ED_ID": "268111" }, "geometry": { "type": "Point", "coordinates": [ -6.2194721, 53.335192 ] } },
{ "type": "Feature", "properties": { "place_id": "ChIJgf5HTiAMZ0gRuMhwwWnVx3s", "latitude": 53.3359893, "longitude": -6.2691297, "type": "local_government_office", "ED_ID": "268162" }, "geometry": { "type": "Point", "coordinates": [ -6.2691297, 53.335989299999987 ] } },
{ "type": "Feature", "properties": { "place_id": "ChIJWwnOdaAOZ0gRUGZt3y1PpzE", "latitude": 53.3327722, "longitude": -6.2652854, "type": "doctor", "ED_ID": "268142" }, "geometry": { "type": "Point", "coordinates": [ -6.2652854, 53.3327722 ] } },
{ "type": "Feature", "properties": { "place_id": "ChIJBSrcxlQOZ0gRXuz1KR3JaOw", "latitude": 53.3624309, "longitude": -6.2171449, "type": "doctor", "ED_ID": "268048" }, "geometry": { "type": "Point", "coordinates": [ -6.2171449, 53.3624309 ] } },
{ "type": "Feature", "properties": { "place_id": "ChIJU1M4jy4MZ0gRIAxX02Yef8E", "latitude": 53.3491613, "longitude": -6.2791961, "type": "doctor", "ED_ID": "268003" }, "geometry": { "type": "Point", "coordinates": [ -6.2791961, 53.3491613 ] } },
{ "type": "Feature", "properties": { "place_id": "ChIJOTLd_YIOZ0gR4Bes0KNOug0", "latitude": 53.3468475, "longitude": -6.2795592, "type": "doctor", "ED_ID": "268003" }, "geometry": { "type": "Point", "coordinates": [ -6.2795592, 53.3468475 ] } },
{ "type": "Feature", "properties": { "place_id": "ChIJ3-MybIAOZ0gR_Kn_qt0Xov4", "latitude": 53.3571858, "longitude": -6.2814574, "type": "doctor", "ED_ID": "268002" }, "geometry": { "type": "Point", "coordinates": [ -6.2814574, 53.3571858 ] } },
{ "type": "Feature", "properties": { "place_id": "ChIJ-cM7csUOZ0gRaGO7ksexrts", "latitude": 53.3272305, "longitude": -6.2245903, "type": "health", "ED_ID": "268114" }, "geometry": { "type": "Point", "coordinates": [ -6.2245903, 53.3272305 ] } },
{ "type": "Feature", "properties": { "place_id": "ChIJ3yNUNXsOZ0gRppRP4E5__mc", "latitude": 53.3633759, "longitude": -6.2583836, "type": "post_office", "ED_ID": "268029" }, "geometry": { "type": "Point", "coordinates": [ -6.2583836, 53.363375899999987 ] } },
{ "type": "Feature", "properties": { "place_id": "ChIJHweIxcoPZ0gRGfnNlPuRy1s", "latitude": 53.363115, "longitude": -6.2583641, "type": "post_office", "ED_ID": "268029" }, "geometry": { "type": "Point", "coordinates": [ -6.2583641, 53.363115 ] } },
{ "type": "Feature", "properties": { "place_id": "ChIJl0XffW8OZ0gR_pbkZAuP30c", "latitude": 53.3675067, "longitude": -6.255252, "type": "post_office", "ED_ID": "268059" }, "geometry": { "type": "Point", "coordinates": [ -6.255252, 53.3675067 ] } },
{ "type": "Feature", "properties": { "place_id": "ChIJ9fed5mEOZ0gRKVhs9pdyT4s", "latitude": 53.3573754, "longitude": -6.2486327, "type": "post_office", "ED_ID": "268009" }, "geometry": { "type": "Point", "coordinates": [ -6.2486327, 53.3573754 ] } },
{ "type": "Feature", "properties": { "place_id": "ChIJj_lzvdYPZ0gRs6u74iD-_C4", "latitude": 53.3599733, "longitude": -6.2446838, "type": "post_office", "ED_ID": "268009" }, "geometry": { "type": "Point", "coordinates": [ -6.2446838, 53.3599733 ] } },
{ "type": "Feature", "properties": { "place_id": "ChIJfyuWkIAOZ0gR2uWWqe-P0rM", "latitude": 53.3566285, "longitude": -6.2643635, "type": "post_office", "ED_ID": "268138" }, "geometry": { "type": "Point", "coordinates": [ -6.2643635, 53.3566285 ] } },
{ "type": "Feature", "properties": { "place_id": "ChIJ7x8A4lwOZ0gR4rzwefB7LkI", "latitude": 53.3665013, "longitude": -6.2413621, "type": "post_office", "ED_ID": "268058" }, "geometry": { "type": "Point", "coordinates": [ -6.2413621, 53.3665013 ] } },
{ "type": "Feature", "properties": { "place_id": "ChIJDxitGHgOZ0gRqsikUaWTpS0", "latitude": 53.3662789, "longitude": -6.2713685, "type": "post_office", "ED_ID": "268027" }, "geometry": { "type": "Point", "coordinates": [ -6.2713685, 53.3662789 ] } },
{ "type": "Feature", "properties": { "place_id": "ChIJndfhPIcOZ0gRthuwkPl401A", "latitude": 53.3543091, "longitude": -6.2617917, "type": "post_office", "ED_ID": "268138" }, "geometry": { "type": "Point", "coordinates": [ -6.2617917, 53.354309099999988 ] } },
{ "type": "Feature", "properties": { "place_id": "ChIJI4SBo0kPZ0gRVg_N5-tvnuk", "latitude": 53.3568993, "longitude": -6.2433991, "type": "post_office", "ED_ID": "268107" }, "geometry": { "type": "Point", "coordinates": [ -6.2433991, 53.356899299999988 ] } },
{ "type": "Feature", "properties": { "place_id": "ChIJVVVBO4cOZ0gRW_KteYMPpB4", "latitude": 53.3542597, "longitude": -6.2620817, "type": "post_office", "ED_ID": "268138" }, "geometry": { "type": "Point", "coordinates": [ -6.2620817, 53.3542597 ] } },
{ "type": "Feature", "properties": { "place_id": "ChIJY4ApX5IPZ0gRirWPmas07Is", "latitude": 53.3624659, "longitude": -6.237446, "type": "post_office", "ED_ID": "268049" }, "geometry": { "type": "Point", "coordinates": [ -6.237446, 53.362465899999989 ] } },
{ "type": "Feature", "properties": { "place_id": "ChIJJ_E82tUNZ0gRk3S4KMP0hK4", "latitude": 53.3606268, "longitude": -6.2742284, "type": "post_office", "ED_ID": "268001" }, "geometry": { "type": "Point", "coordinates": [ -6.2742284, 53.3606268 ] } },
{ "type": "Feature", "properties": { "place_id": "ChIJ4xfH0NUNZ0gRyUcvBBA0AFs", "latitude": 53.3605921, "longitude": -6.2745604, "type": "post_office", "ED_ID": "268001" }, "geometry": { "type": "Point", "coordinates": [ -6.2745604, 53.3605921 ] } },
{ "type": "Feature", "properties": { "place_id": "ChIJwSew4HUPZ0gRrBAPw9nfoPA", "latitude": 53.3514253, "longitude": -6.2632178, "type": "post_office", "ED_ID": "268106" }, "geometry": { "type": "Point", "coordinates": [ -6.2632178, 53.3514253 ] } },
{ "type": "Feature", "properties": { "place_id": "ChIJTwrbPVoOZ0gRJKc7ZDwZ6TM", "latitude": 53.3642221, "longitude": -6.2329918, "type": "post_office", "ED_ID": "268049" }, "geometry": { "type": "Point", "coordinates": [ -6.2329918, 53.3642221 ] } },
{ "type": "Feature", "properties": { "place_id": "ChIJ____P4QOZ0gR7IJjymgVDiM", "latitude": 53.3495374, "longitude": -6.2604982, "type": "post_office", "ED_ID": "268106" }, "geometry": { "type": "Point", "coordinates": [ -6.2604982, 53.3495374 ] } },
{ "type": "Feature", "properties": { "place_id": "ChIJebysQYQOZ0gRpgPPd8gjejc", "latitude": 53.349349, "longitude": -6.260721, "type": "post_office", "ED_ID": "268106" }, "geometry": { "type": "Point", "coordinates": [ -6.260721, 53.349349 ] } },
{ "type": "Feature", "properties": { "place_id": "ChIJ7xq1coQOZ0gRK8VwCH_dhTY", "latitude": 53.3494614, "longitude": -6.2618173, "type": "post_office", "ED_ID": "268106" }, "geometry": { "type": "Point", "coordinates": [ -6.2618173, 53.3494614 ] } },
{ "type": "Feature", "properties": { "place_id": "ChIJR2ouc4QOZ0gRQ2sTnnv95BA", "latitude": 53.3494431, "longitude": -6.2619352, "type": "post_office", "ED_ID": "268106" }, "geometry": { "type": "Point", "coordinates": [ -6.2619352, 53.349443099999988 ] } },
{ "type": "Feature", "properties": { "place_id": "ChIJnSQEOfYOZ0gRW7rdsRaVwYY", "latitude": 53.355137, "longitude": -6.2350474, "type": "post_office", "ED_ID": "268108" }, "geometry": { "type": "Point", "coordinates": [ -6.2350474, 53.355137 ] } },
{ "type": "Feature", "properties": { "place_id": "ChIJebysQYQOZ0gR-8it5ybY82M", "latitude": 53.3510283, "longitude": -6.2703071, "type": "post_office", "ED_ID": "268082" }, "geometry": { "type": "Point", "coordinates": [ -6.2703071, 53.3510283 ] } },
{ "type": "Feature", "properties": { "place_id": "ChIJ6zCN5QwOZ0gRkQzF8L_HVS0", "latitude": 53.3794533, "longitude": -6.26641, "type": "post_office", "ED_ID": "268011" }, "geometry": { "type": "Point", "coordinates": [ -6.26641, 53.379453299999987 ] } },
{ "type": "Feature", "properties": { "place_id": "ChIJmyKHHdANZ0gRMhzcOjhiQsU", "latitude": 53.3648023, "longitude": -6.286852, "type": "post_office", "ED_ID": "268031" }, "geometry": { "type": "Point", "coordinates": [ -6.286852, 53.3648023 ] } },
{ "type": "Feature", "properties": { "place_id": "ChIJuXtBP80NZ0gRVwnQkiLvFlU", "latitude": 53.3560323, "longitude": -6.286692, "type": "post_office", "ED_ID": "268002" }, "geometry": { "type": "Point", "coordinates": [ -6.286692, 53.3560323 ] } },
{ "type": "Feature", "properties": { "place_id": "ChIJXTLrjpwOZ0gR7eosBKKEqew", "latitude": 53.3438164, "longitude": -6.2614242, "type": "post_office", "ED_ID": "268140" }, "geometry": { "type": "Point", "coordinates": [ -6.2614242, 53.343816399999987 ] } },
{ "type": "Feature", "properties": { "place_id": "ChIJzUpVwhINZ0gRHtfM98MZLPc", "latitude": 53.3505492, "longitude": -6.2817146, "type": "post_office", "ED_ID": "268002" }, "geometry": { "type": "Point", "coordinates": [ -6.2817146, 53.3505492 ] } },
{ "type": "Feature", "properties": { "place_id": "ChIJxcAN9DgOZ0gR1moNeMWk1e8", "latitude": 53.3819827, "longitude": -6.2413653, "type": "post_office", "ED_ID": "268160" }, "geometry": { "type": "Point", "coordinates": [ -6.2413653, 53.381982699999988 ] } },
{ "type": "Feature", "properties": { "place_id": "ChIJ9eDot5MOZ0gRgLzwbhaFZGM", "latitude": 53.3429769, "longitude": -6.2448379, "type": "post_office", "ED_ID": "268096" }, "geometry": { "type": "Point", "coordinates": [ -6.2448379, 53.3429769 ] } },
{ "type": "Feature", "properties": { "place_id": "ChIJIz87RS8MZ0gRhUw3i27CoGo", "latitude": 53.3453252, "longitude": -6.2764199, "type": "post_office", "ED_ID": "268098" }, "geometry": { "type": "Point", "coordinates": [ -6.2764199, 53.3453252 ] } },
{ "type": "Feature", "properties": { "place_id": "ChIJTYkt_gkOZ0gR-6S3JGPW-3g", "latitude": 53.3827277, "longitude": -6.2768456, "type": "post_office", "ED_ID": "268013" }, "geometry": { "type": "Point", "coordinates": [ -6.2768456, 53.3827277 ] } },
{ "type": "Feature", "properties": { "place_id": "ChIJE5OPesQNZ0gRSNmJMlopyq4", "latitude": 53.370488, "longitude": -6.2925178, "type": "post_office", "ED_ID": "268034" }, "geometry": { "type": "Point", "coordinates": [ -6.2925178, 53.370488 ] } },
{ "type": "Feature", "properties": { "place_id": "ChIJrZV_B8QOZ0gRAnfbPTbrGzw", "latitude": 53.338159, "longitude": -6.2540679, "type": "post_office", "ED_ID": "268097" }, "geometry": { "type": "Point", "coordinates": [ -6.2540679, 53.338159 ] } },
{ "type": "Feature", "properties": { "place_id": "ChIJgatKU8YNZ0gRbDkbVLZY-n4", "latitude": 53.367491, "longitude": -6.2992833, "type": "post_office", "ED_ID": "268034" }, "geometry": { "type": "Point", "coordinates": [ -6.2992833, 53.367491 ] } },
{ "type": "Feature", "properties": { "place_id": "ChIJ13C8cesOZ0gRohpSXVl-7Js", "latitude": 53.3402218, "longitude": -6.2361115, "type": "post_office", "ED_ID": "268115" }, "geometry": { "type": "Point", "coordinates": [ -6.2361115, 53.340221799999988 ] } },
{ "type": "Feature", "properties": { "place_id": "ChIJdxUvbzYMZ0gRWg76FkOlDRA", "latitude": 53.3482167, "longitude": -6.294479, "type": "post_office", "ED_ID": "268004" }, "geometry": { "type": "Point", "coordinates": [ -6.294479, 53.348216699999988 ] } },
{ "type": "Feature", "properties": { "place_id": "ChIJ3yIXlpgOZ0gRZdQxFZwQ0rs", "latitude": 53.3357189, "longitude": -6.2572458, "type": "post_office", "ED_ID": "268142" }, "geometry": { "type": "Point", "coordinates": [ -6.2572458, 53.3357189 ] } },
{ "type": "Feature", "properties": { "place_id": "ChIJ9cwk4y8PZ0gRUu9dY1MAXG0", "latitude": 53.333581, "longitude": -6.2447808, "type": "post_office", "ED_ID": "268117" }, "geometry": { "type": "Point", "coordinates": [ -6.2447808, 53.333581 ] } },
{ "type": "Feature", "properties": { "place_id": "ChIJk185vC8OZ0gRYT_SkRaXbXs", "latitude": 53.3919676, "longitude": -6.2347223, "type": "post_office", "ED_ID": "268021" }, "geometry": { "type": "Point", "coordinates": [ -6.2347223, 53.3919676 ] } },
{ "type": "Feature", "properties": { "place_id": "ChIJTexkmzKDY0ERx_G2gJkTmq0", "latitude": 53.3425322, "longitude": -6.2941064, "type": "post_office", "ED_ID": "268148" }, "geometry": { "type": "Point", "coordinates": [ -6.2941064, 53.3425322 ] } },
{ "type": "Feature", "properties": { "place_id": "ChIJi9JRcgYOZ0gRQAAWuEQUIH4", "latitude": 53.3897603, "longitude": -6.2721575, "type": "post_office", "ED_ID": "268011" }, "geometry": { "type": "Point", "coordinates": [ -6.2721575, 53.3897603 ] } },
{ "type": "Feature", "properties": { "place_id": "ChIJa4vO8CIOZ0gR8Ib137v2Sgo", "latitude": 53.3916237, "longitude": -6.2484647, "type": "post_office", "ED_ID": "268159" }, "geometry": { "type": "Point", "coordinates": [ -6.2484647, 53.3916237 ] } },
{ "type": "Feature", "properties": { "place_id": "ChIJX4kDLrAPZ0gRhIHxjOaIm5s", "latitude": 53.3706125, "longitude": -6.2068244, "type": "post_office", "ED_ID": "268044" }, "geometry": { "type": "Point", "coordinates": [ -6.2068244, 53.3706125 ] } },
{ "type": "Feature", "properties": { "place_id": "ChIJqS2b8O4NZ0gRAq0x1ohQf9E", "latitude": 53.3831928, "longitude": -6.2964696, "type": "post_office", "ED_ID": "268067" }, "geometry": { "type": "Point", "coordinates": [ -6.2964696, 53.3831928 ] } },
{ "type": "Feature", "properties": { "place_id": "ChIJ02BALcoPZ0gRH241PxzEQLs", "latitude": 53.3839845, "longitude": -6.2143533, "type": "post_office", "ED_ID": "268023" }, "geometry": { "type": "Point", "coordinates": [ -6.2143533, 53.3839845 ] } },
{ "type": "Feature", "properties": { "place_id": "ChIJAwBgHzwMZ0gRHGdMhAF02Eg", "latitude": 53.3372174, "longitude": -6.2867452, "type": "post_office", "ED_ID": "268150" }, "geometry": { "type": "Point", "coordinates": [ -6.2867452, 53.3372174 ] } },
{ "type": "Feature", "properties": { "place_id": "ChIJvTns8RgMZ0gRi1Cq_qD8NKc", "latitude": 53.3321318, "longitude": -6.2750254, "type": "post_office", "ED_ID": "268162" }, "geometry": { "type": "Point", "coordinates": [ -6.2750254, 53.332131800000013 ] } },
{ "type": "Feature", "properties": { "place_id": "ChIJRX9-ofENZ0gR3BIZ8QvtjWU", "latitude": 53.3890825, "longitude": -6.2980694, "type": "post_office", "ED_ID": "268012" }, "geometry": { "type": "Point", "coordinates": [ -6.2980694, 53.3890825 ] } },
{ "type": "Feature", "properties": { "place_id": "ChIJw6ueyD8MZ0gR6dG1IEkD0FE", "latitude": 53.3340174, "longitude": -6.2909532, "type": "post_office", "ED_ID": "268151" }, "geometry": { "type": "Point", "coordinates": [ -6.2909532, 53.3340174 ] } },
{ "type": "Feature", "properties": { "place_id": "ChIJ4R3_yMYOZ0gRTUErK2ImUPQ", "latitude": 53.3302162, "longitude": -6.2317049, "type": "post_office", "ED_ID": "268116" }, "geometry": { "type": "Point", "coordinates": [ -6.2317049, 53.3302162 ] } },
{ "type": "Feature", "properties": { "place_id": "ChIJ5z2jpicPZ0gRTBtS-vAsbco", "latitude": 53.3616535, "longitude": -6.1940263, "type": "post_office", "ED_ID": "268042" }, "geometry": { "type": "Point", "coordinates": [ -6.1940263, 53.3616535 ] } },
{ "type": "Feature", "properties": { "place_id": "ChIJY0EgcRUMZ0gRPqojBqhW2hI", "latitude": 53.3319764, "longitude": -6.289499, "type": "post_office", "ED_ID": "268103" }, "geometry": { "type": "Point", "coordinates": [ -6.289499, 53.331976399999988 ] } },
{ "type": "Feature", "properties": { "place_id": "ChIJbU2hGkEMZ0gRWqDFv60yvF4", "latitude": 53.3360442, "longitude": -6.2984681, "type": "post_office", "ED_ID": "268152" }, "geometry": { "type": "Point", "coordinates": [ -6.2984681, 53.3360442 ] } },
{ "type": "Feature", "properties": { "place_id": "ChIJwZTNWhUMZ0gR-DqFfTNd8OE", "latitude": 53.331928, "longitude": -6.2895058, "type": "post_office", "ED_ID": "268103" }, "geometry": { "type": "Point", "coordinates": [ -6.2895058, 53.331928 ] } },
{ "type": "Feature", "properties": { "place_id": "ChIJ-bx1CKMOZ0gRktERixD6ky4", "latitude": 53.3254767, "longitude": -6.2554848, "type": "post_office", "ED_ID": "268131" }, "geometry": { "type": "Point", "coordinates": [ -6.2554848, 53.3254767 ] } },
{ "type": "Feature", "properties": { "place_id": "ChIJq0fyr8APZ0gRWG1eYWU6BXc", "latitude": 53.3817911, "longitude": -6.1985327, "type": "post_office", "ED_ID": "268077" }, "geometry": { "type": "Point", "coordinates": [ -6.1985327, 53.3817911 ] } },
{ "type": "Feature", "properties": { "place_id": "ChIJVQwhcxoMZ0gRObRH-6qCSiM", "latitude": 53.3269087, "longitude": -6.2774911, "type": "post_office", "ED_ID": "268132" }, "geometry": { "type": "Point", "coordinates": [ -6.2774911, 53.3269087 ] } },
{ "type": "Feature", "properties": { "place_id": "ChIJkTih3kQMZ0gR5VwDLFf6Dd4", "latitude": 53.3399168, "longitude": -6.307848, "type": "post_office", "ED_ID": "268153" }, "geometry": { "type": "Point", "coordinates": [ -6.307848, 53.3399168 ] } },
{ "type": "Feature", "properties": { "place_id": "ChIJBakeUL4PZ0gR9EMWkBmthj8", "latitude": 53.3781304, "longitude": -6.1940908, "type": "post_office", "ED_ID": "268077" }, "geometry": { "type": "Point", "coordinates": [ -6.1940908, 53.3781304 ] } },
{ "type": "Feature", "properties": { "place_id": "ChIJYxPTTb4PZ0gRBo3i-VWHYXQ", "latitude": 53.3781203, "longitude": -6.1940108, "type": "post_office", "ED_ID": "268077" }, "geometry": { "type": "Point", "coordinates": [ -6.1940108, 53.378120300000013 ] } },
{ "type": "Feature", "properties": { "place_id": "ChIJo5Nxz6EOZ0gRA7YSp56lQuo", "latitude": 53.3337192, "longitude": -6.26132, "type": "bank", "ED_ID": "268142" }, "geometry": { "type": "Point", "coordinates": [ -6.26132, 53.3337192 ] } },
{ "type": "Feature", "properties": { "place_id": "ChIJe2dKb5kOZ0gRO8y3lJIjxpk", "latitude": 53.3394503, "longitude": -6.2577126, "type": "bank", "ED_ID": "268097" }, "geometry": { "type": "Point", "coordinates": [ -6.2577126, 53.3394503 ] } },
{ "type": "Feature", "properties": { "place_id": "ChIJVYQ-suEPZ0gR0npj0DLLlZo", "latitude": 53.3376978, "longitude": -6.2550299, "type": "bank", "ED_ID": "268097" }, "geometry": { "type": "Point", "coordinates": [ -6.2550299, 53.3376978 ] } },
{ "type": "Feature", "properties": { "place_id": "ChIJ0xHd558OZ0gROr5l4TpwHUU", "latitude": 53.3356307, "longitude": -6.2654427, "type": "bank", "ED_ID": "268142" }, "geometry": { "type": "Point", "coordinates": [ -6.2654427, 53.3356307 ] } },
{ "type": "Feature", "properties": { "place_id": "ChIJZcOmpJkOZ0gR8D1XBkdqu3Q", "latitude": 53.338441, "longitude": -6.2551662, "type": "bank", "ED_ID": "268097" }, "geometry": { "type": "Point", "coordinates": [ -6.2551662, 53.338441 ] } },
{ "type": "Feature", "properties": { "place_id": "ChIJ57iRJaAOZ0gR3J9V7KLuCqc", "latitude": 53.3336839, "longitude": -6.2631442, "type": "bank", "ED_ID": "268142" }, "geometry": { "type": "Point", "coordinates": [ -6.2631442, 53.3336839 ] } },
{ "type": "Feature", "properties": { "place_id": "ChIJzZCxO6AOZ0gRzXHkK4NdbYc", "latitude": 53.3335921, "longitude": -6.2632229, "type": "bank", "ED_ID": "268142" }, "geometry": { "type": "Point", "coordinates": [ -6.2632229, 53.3335921 ] } },
{ "type": "Feature", "properties": { "place_id": "ChIJxdSQzJkOZ0gR94KVecUNsqg", "latitude": 53.3375682, "longitude": -6.254113, "type": "bank", "ED_ID": "268097" }, "geometry": { "type": "Point", "coordinates": [ -6.254113, 53.3375682 ] } },
{ "type": "Feature", "properties": { "place_id": "ChIJX7cjOaAOZ0gRGcRygx1JpE8", "latitude": 53.3333424, "longitude": -6.263265, "type": "bank", "ED_ID": "268142" }, "geometry": { "type": "Point", "coordinates": [ -6.263265, 53.3333424 ] } },
{ "type": "Feature", "properties": { "place_id": "ChIJw4BX0ZkOZ0gRd4K4JbCtqHw", "latitude": 53.3383768, "longitude": -6.2540792, "type": "atm", "ED_ID": "268097" }, "geometry": { "type": "Point", "coordinates": [ -6.2540792, 53.3383768 ] } },
{ "type": "Feature", "properties": { "place_id": "ChIJf6fels0PZ0gRjH2u_1eoln4", "latitude": 53.3355842, "longitude": -6.2534909, "type": "bank", "ED_ID": "268097" }, "geometry": { "type": "Point", "coordinates": [ -6.2534909, 53.3355842 ] } },
{ "type": "Feature", "properties": { "place_id": "ChIJH7dZ0ZkOZ0gRG8XIwZSWFYQ", "latitude": 53.3380926, "longitude": -6.2530892, "type": "bank", "ED_ID": "268097" }, "geometry": { "type": "Point", "coordinates": [ -6.2530892, 53.3380926 ] } },
{ "type": "Feature", "properties": { "place_id": "ChIJUboigJcOZ0gRLW13RjT-eZc", "latitude": 53.3378761, "longitude": -6.2528884, "type": "bank", "ED_ID": "268097" }, "geometry": { "type": "Point", "coordinates": [ -6.2528884, 53.3378761 ] } },
{ "type": "Feature", "properties": { "place_id": "ChIJO9GP7ZgOZ0gReINDrzQiIxA", "latitude": 53.3411515, "longitude": -6.2606356, "type": "bank", "ED_ID": "268141" }, "geometry": { "type": "Point", "coordinates": [ -6.2606356, 53.3411515 ] } },
{ "type": "Feature", "properties": { "place_id": "ChIJmXbMeiAMZ0gRipm3RUPx4fc", "latitude": 53.3362933, "longitude": -6.2676184, "type": "bank", "ED_ID": "268140" }, "geometry": { "type": "Point", "coordinates": [ -6.2676184, 53.336293299999987 ] } },
{ "type": "Feature", "properties": { "place_id": "ChIJM6-IbqAOZ0gRNOWtu5c9VxA", "latitude": 53.3327098, "longitude": -6.264286, "type": "bank", "ED_ID": "268142" }, "geometry": { "type": "Point", "coordinates": [ -6.264286, 53.3327098 ] } },
{ "type": "Feature", "properties": { "place_id": "ChIJNZiTH54OZ0gR975NUAZcVJ0", "latitude": 53.3382611, "longitude": -6.2674698, "type": "atm", "ED_ID": "268140" }, "geometry": { "type": "Point", "coordinates": [ -6.2674698, 53.3382611 ] } },
{ "type": "Feature", "properties": { "place_id": "ChIJR1PMCZsOZ0gRV3MQgZB9F9E", "latitude": 53.3413746, "longitude": -6.2577438, "type": "bank", "ED_ID": "268097" }, "geometry": { "type": "Point", "coordinates": [ -6.2577438, 53.341374599999988 ] } },
{ "type": "Feature", "properties": { "place_id": "ChIJhYQWZ_cPZ0gRqCQmNk7-gF4", "latitude": 53.3412285, "longitude": -6.2568166, "type": "bank", "ED_ID": "268097" }, "geometry": { "type": "Point", "coordinates": [ -6.2568166, 53.3412285 ] } },
{ "type": "Feature", "properties": { "place_id": "ChIJ12Vhy5sOZ0gRiBdmFD0lOrE", "latitude": 53.3413606, "longitude": -6.2570955, "type": "bank", "ED_ID": "268097" }, "geometry": { "type": "Point", "coordinates": [ -6.2570955, 53.3413606 ] } },
{ "type": "Feature", "properties": { "place_id": "ChIJG4Tzc5sOZ0gRL-tWOjqrWMo", "latitude": 53.3374, "longitude": -6.2512922, "type": "bank", "ED_ID": "268097" }, "geometry": { "type": "Point", "coordinates": [ -6.2512922, 53.3374 ] } },
{ "type": "Feature", "properties": { "place_id": "ChIJTRXGeaAOZ0gRtQXHh0oxlTU", "latitude": 53.3323066, "longitude": -6.2650339, "type": "bank", "ED_ID": "268142" }, "geometry": { "type": "Point", "coordinates": [ -6.2650339, 53.3323066 ] } },
{ "type": "Feature", "properties": { "place_id": "ChIJC33Id5sOZ0gRzUHBMl1z76g", "latitude": 53.3428876, "longitude": -6.2596614, "type": "bank", "ED_ID": "268141" }, "geometry": { "type": "Point", "coordinates": [ -6.2596614, 53.3428876 ] } },
{ "type": "Feature", "properties": { "place_id": "ChIJg2erd5sOZ0gRFI4ojFUls48", "latitude": 53.3429647, "longitude": -6.2596338, "type": "bank", "ED_ID": "268141" }, "geometry": { "type": "Point", "coordinates": [ -6.2596338, 53.3429647 ] } },
{ "type": "Feature", "properties": { "place_id": "ChIJfbglcZsOZ0gR0TdwExS3pSM", "latitude": 53.3432021, "longitude": -6.2596466, "type": "bank", "ED_ID": "268141" }, "geometry": { "type": "Point", "coordinates": [ -6.2596466, 53.3432021 ] } },
{ "type": "Feature", "properties": { "place_id": "ChIJF2EDXpsOZ0gR_BeqXsuLo8U", "latitude": 53.3441373, "longitude": -6.260606, "type": "bank", "ED_ID": "268140" }, "geometry": { "type": "Point", "coordinates": [ -6.260606, 53.3441373 ] } },
{ "type": "Feature", "properties": { "place_id": "ChIJZZWAopwOZ0gRk4mOp2O-8nQ", "latitude": 53.3441367, "longitude": -6.2618365, "type": "bank", "ED_ID": "268140" }, "geometry": { "type": "Point", "coordinates": [ -6.2618365, 53.3441367 ] } },
{ "type": "Feature", "properties": { "place_id": "ChIJ-5rvYpYOZ0gRPOn0DbJlOh4", "latitude": 53.3379601, "longitude": -6.2465627, "type": "bank", "ED_ID": "268143" }, "geometry": { "type": "Point", "coordinates": [ -6.2465627, 53.3379601 ] } },
{ "type": "Feature", "properties": { "place_id": "ChIJs43ePp0OZ0gRicfaUJJbcMs", "latitude": 53.344011, "longitude": -6.2659636, "type": "bank", "ED_ID": "268140" }, "geometry": { "type": "Point", "coordinates": [ -6.2659636, 53.344011 ] } },
{ "type": "Feature", "properties": { "place_id": "ChIJyW5sQ50OZ0gRVDNzkFELgf4", "latitude": 53.3440497, "longitude": -6.2669865, "type": "bank", "ED_ID": "268140" }, "geometry": { "type": "Point", "coordinates": [ -6.2669865, 53.3440497 ] } },
{ "type": "Feature", "properties": { "place_id": "ChIJ-5_f3b0OZ0gReFacqDKj42U", "latitude": 53.3340055, "longitude": -6.2448396, "type": "bank", "ED_ID": "268117" }, "geometry": { "type": "Point", "coordinates": [ -6.2448396, 53.3340055 ] } },
{ "type": "Feature", "properties": { "place_id": "ChIJC44dO4QOZ0gR402YfqBMNps", "latitude": 53.3479071, "longitude": -6.2590352, "type": "bank", "ED_ID": "268106" }, "geometry": { "type": "Point", "coordinates": [ -6.2590352, 53.3479071 ] } },
{ "type": "Feature", "properties": { "place_id": "ChIJG4Tzc5sOZ0gRse2cTVhXo8Y", "latitude": 53.347381, "longitude": -6.254185, "type": "atm", "ED_ID": "268096" }, "geometry": { "type": "Point", "coordinates": [ -6.254185, 53.347381 ] } },
{ "type": "Feature", "properties": { "place_id": "ChIJI67ivqUOZ0gRLmIZ2mz8OBI", "latitude": 53.3256698, "longitude": -6.2547573, "type": "bank", "ED_ID": "268128" }, "geometry": { "type": "Point", "coordinates": [ -6.2547573, 53.3256698 ] } },
{ "type": "Feature", "properties": { "place_id": "ChIJkThd94QOZ0gRAOmDtf0JX7U", "latitude": 53.3480965, "longitude": -6.2590424, "type": "bank", "ED_ID": "268106" }, "geometry": { "type": "Point", "coordinates": [ -6.2590424, 53.3480965 ] } },
{ "type": "Feature", "properties": { "place_id": "ChIJnW6Zd4IOZ0gRdmmyYczj8ug", "latitude": 53.3484727, "longitude": -6.2690811, "type": "bank", "ED_ID": "268106" }, "geometry": { "type": "Point", "coordinates": [ -6.2690811, 53.348472699999988 ] } },
{ "type": "Feature", "properties": { "place_id": "ChIJL4sviq8OZ0gRxskQwKwRzB8", "latitude": 53.3241595, "longitude": -6.2515462, "type": "bank", "ED_ID": "268128" }, "geometry": { "type": "Point", "coordinates": [ -6.2515462, 53.3241595 ] } },
{ "type": "Feature", "properties": { "place_id": "ChIJFyHFVZMOZ0gRO5Ld01Zz1XM", "latitude": 53.3436754, "longitude": -6.2393834, "type": "bank", "ED_ID": "268143" }, "geometry": { "type": "Point", "coordinates": [ -6.2393834, 53.3436754 ] } },
{ "type": "Feature", "properties": { "place_id": "ChIJo_NTsI4OZ0gR-L205JAp4xg", "latitude": 53.3500368, "longitude": -6.2499673, "type": "bank", "ED_ID": "268109" }, "geometry": { "type": "Point", "coordinates": [ -6.2499673, 53.3500368 ] } },
{ "type": "Feature", "properties": { "place_id": "ChIJH9RBNZwOZ0gRCfMDzf3wA0c", "latitude": 53.3411706, "longitude": -6.2637208, "type": "atm", "ED_ID": "268141" }, "geometry": { "type": "Point", "coordinates": [ -6.2637208, 53.3411706 ] } },
{ "type": "Feature", "properties": { "place_id": "ChIJ0WMft5sOZ0gRH3pmLFK5MmU", "latitude": 53.3418183, "longitude": -6.2576307, "type": "bank", "ED_ID": "268097" }, "geometry": { "type": "Point", "coordinates": [ -6.2576307, 53.3418183 ] } },
{ "type": "Feature", "properties": { "place_id": "ChIJ3XQvAJ0OZ0gRTGaoJNmQ2Rw", "latitude": 53.342761, "longitude": -6.2642613, "type": "atm", "ED_ID": "268141" }, "geometry": { "type": "Point", "coordinates": [ -6.2642613, 53.342761 ] } },
{ "type": "Feature", "properties": { "place_id": "ChIJhXL-_7wOZ0gRv7TLSHbIU6I", "latitude": 53.3329012, "longitude": -6.2482263, "type": "bank", "ED_ID": "268117" }, "geometry": { "type": "Point", "coordinates": [ -6.2482263, 53.332901199999988 ] } },
{ "type": "Feature", "properties": { "place_id": "ChIJHQ2RIDkPZ0gRUgyuQ_-vpDo", "latitude": 53.3328466, "longitude": -6.24634, "type": "bank", "ED_ID": "268117" }, "geometry": { "type": "Point", "coordinates": [ -6.24634, 53.3328466 ] } },
{ "type": "Feature", "properties": { "place_id": "ChIJh4Ysx48OZ0gROrSyFvqeaAg", "latitude": 53.3472963, "longitude": -6.2536856, "type": "bank", "ED_ID": "268096" }, "geometry": { "type": "Point", "coordinates": [ -6.2536856, 53.3472963 ] } },
{ "type": "Feature", "properties": { "place_id": "ChIJs3GYWYQOZ0gRGjI_aq-bEHs", "latitude": 53.3485635, "longitude": -6.2593121, "type": "bank", "ED_ID": "268106" }, "geometry": { "type": "Point", "coordinates": [ -6.2593121, 53.3485635 ] } },
{ "type": "Feature", "properties": { "place_id": "ChIJLQzsg6UOZ0gRZNEHWsMHxFs", "latitude": 53.3243498, "longitude": -6.2532964, "type": "bank", "ED_ID": "268131" }, "geometry": { "type": "Point", "coordinates": [ -6.2532964, 53.3243498 ] } },
{ "type": "Feature", "properties": { "place_id": "ChIJgzQb240OZ0gRyoTbP_f9Ls4", "latitude": 53.34834, "longitude": -6.250532, "type": "bank", "ED_ID": "268109" }, "geometry": { "type": "Point", "coordinates": [ -6.250532, 53.34834 ] } },
{ "type": "Feature", "properties": { "place_id": "ChIJqyHkZZ4CRUgR00DyiqbTwds", "latitude": 53.3496183, "longitude": -6.2560065, "type": "bank", "ED_ID": "268106" }, "geometry": { "type": "Point", "coordinates": [ -6.2560065, 53.3496183 ] } },
{ "type": "Feature", "properties": { "place_id": "ChIJvUK1JDoMZ0gRDHeZSxIHa5M", "latitude": 53.3434881, "longitude": -6.2390937, "type": "bank", "ED_ID": "268143" }, "geometry": { "type": "Point", "coordinates": [ -6.2390937, 53.343488099999988 ] } },
{ "type": "Feature", "properties": { "place_id": "ChIJ9Rdm6Y4OZ0gRmxJI74dMPWo", "latitude": 53.3497787, "longitude": -6.2502399, "type": "bank", "ED_ID": "268109" }, "geometry": { "type": "Point", "coordinates": [ -6.2502399, 53.349778699999987 ] } },
{ "type": "Feature", "properties": { "place_id": "ChIJo_NTsI4OZ0gR1-jnkS-aRyo", "latitude": 53.350146, "longitude": -6.249887, "type": "bank", "ED_ID": "268109" }, "geometry": { "type": "Point", "coordinates": [ -6.249887, 53.350146 ] } },
{ "type": "Feature", "properties": { "place_id": "ChIJ_58iPu0OZ0gRCt-ZrVjjHA0", "latitude": 53.3449563, "longitude": -6.2384715, "type": "bank", "ED_ID": "268143" }, "geometry": { "type": "Point", "coordinates": [ -6.2384715, 53.3449563 ] } },
{ "type": "Feature", "properties": { "place_id": "ChIJGfc9x4YOZ0gRpvJ_2rufGy4", "latitude": 53.352199, "longitude": -6.2618131, "type": "bank", "ED_ID": "268106" }, "geometry": { "type": "Point", "coordinates": [ -6.2618131, 53.352199 ] } },
{ "type": "Feature", "properties": { "place_id": "ChIJQT2L-TkMZ0gRBtS_MZL9cvM", "latitude": 53.3436523, "longitude": -6.2845959, "type": "bank", "ED_ID": "268149" }, "geometry": { "type": "Point", "coordinates": [ -6.2845959, 53.3436523 ] } },
{ "type": "Feature", "properties": { "place_id": "ChIJkdD-5W4NZ0gRy0lI9eG6kyQ", "latitude": 53.3435873, "longitude": -6.2841836, "type": "restaurant", "ED_ID": "268149" }, "geometry": { "type": "Point", "coordinates": [ -6.2841836, 53.3435873 ] } },
{ "type": "Feature", "properties": { "place_id": "ChIJO1J7TCUMZ0gRWDYqJ2JdsdQ", "latitude": 53.3434299, "longitude": -6.2816629, "type": "restaurant", "ED_ID": "268149" }, "geometry": { "type": "Point", "coordinates": [ -6.2816629, 53.3434299 ] } },
{ "type": "Feature", "properties": { "place_id": "ChIJfcIATCUMZ0gRVXe4pWOR5UQ", "latitude": 53.343364, "longitude": -6.281492, "type": "restaurant", "ED_ID": "268149" }, "geometry": { "type": "Point", "coordinates": [ -6.281492, 53.343364 ] } },
{ "type": "Feature", "properties": { "place_id": "ChIJHe2PzjUNZ0gRYb6HXXQtAzc", "latitude": 53.3464024, "longitude": -6.2845184, "type": "food", "ED_ID": "268149" }, "geometry": { "type": "Point", "coordinates": [ -6.2845184, 53.3464024 ] } },
{ "type": "Feature", "properties": { "place_id": "ChIJl1LMTjAMZ0gR-r2Ng_HX9ok", "latitude": 53.3464495, "longitude": -6.2848345, "type": "food", "ED_ID": "268149" }, "geometry": { "type": "Point", "coordinates": [ -6.2848345, 53.346449500000013 ] } },
{ "type": "Feature", "properties": { "place_id": "ChIJQWoySDoMZ0gR50kb-kHCg9s", "latitude": 53.3417252, "longitude": -6.2864908, "type": "restaurant", "ED_ID": "268150" }, "geometry": { "type": "Point", "coordinates": [ -6.2864908, 53.3417252 ] } },
{ "type": "Feature", "properties": { "place_id": "ChIJ26ZB2i8MZ0gR3nDGqG9lTS4", "latitude": 53.3462283, "longitude": -6.2822218, "type": "restaurant", "ED_ID": "268149" }, "geometry": { "type": "Point", "coordinates": [ -6.2822218, 53.3462283 ] } },
{ "type": "Feature", "properties": { "place_id": "ChIJhQssSDoMZ0gRLu4MjDW5qs4", "latitude": 53.3417996, "longitude": -6.2870519, "type": "restaurant", "ED_ID": "268150" }, "geometry": { "type": "Point", "coordinates": [ -6.2870519, 53.341799599999987 ] } },
{ "type": "Feature", "properties": { "place_id": "ChIJIe6KX7QNZ0gRoouh44HPn-Q", "latitude": 53.3428279, "longitude": -6.2803773, "type": "restaurant", "ED_ID": "268099" }, "geometry": { "type": "Point", "coordinates": [ -6.2803773, 53.3428279 ] } },
{ "type": "Feature", "properties": { "place_id": "ChIJKQ_fLAENZ0gRaCE7BPtLXIA", "latitude": 53.343241, "longitude": -6.2891204, "type": "food", "ED_ID": "268150" }, "geometry": { "type": "Point", "coordinates": [ -6.2891204, 53.343241 ] } },
{ "type": "Feature", "properties": { "place_id": "ChIJmWlXIDoMZ0gR9TTra4v7KEo", "latitude": 53.3424805, "longitude": -6.2885768, "type": "food", "ED_ID": "268150" }, "geometry": { "type": "Point", "coordinates": [ -6.2885768, 53.3424805 ] } },
{ "type": "Feature", "properties": { "place_id": "ChIJaVJ7FSUMZ0gRQZW0vdbBTEY", "latitude": 53.3430573, "longitude": -6.2799737, "type": "food", "ED_ID": "268099" }, "geometry": { "type": "Point", "coordinates": [ -6.2799737, 53.3430573 ] } },
{ "type": "Feature", "properties": { "place_id": "ChIJv2kcjBYNZ0gRC-6Rwa6jREU", "latitude": 53.3431714, "longitude": -6.27986, "type": "restaurant", "ED_ID": "268098" }, "geometry": { "type": "Point", "coordinates": [ -6.27986, 53.3431714 ] } },
{ "type": "Feature", "properties": { "place_id": "ChIJ8Q4YFSUMZ0gRcPEJlEV_INw", "latitude": 53.3431714, "longitude": -6.27986, "type": "restaurant", "ED_ID": "268098" }, "geometry": { "type": "Point", "coordinates": [ -6.27986, 53.3431714 ] } },
{ "type": "Feature", "properties": { "place_id": "ChIJi46Xvy8MZ0gR5lTYIkMEftE", "latitude": 53.3458055, "longitude": -6.2805283, "type": "restaurant", "ED_ID": "268098" }, "geometry": { "type": "Point", "coordinates": [ -6.2805283, 53.3458055 ] } },
{ "type": "Feature", "properties": { "place_id": "ChIJxSY3FCUMZ0gRwwris--3o-0", "latitude": 53.3428011, "longitude": -6.2797387, "type": "food", "ED_ID": "268099" }, "geometry": { "type": "Point", "coordinates": [ -6.2797387, 53.3428011 ] } },
{ "type": "Feature", "properties": { "place_id": "ChIJF5CKbWMNZ0gRAPhKM8LgCok", "latitude": 53.3451669, "longitude": -6.279315, "type": "restaurant", "ED_ID": "268098" }, "geometry": { "type": "Point", "coordinates": [ -6.279315, 53.3451669 ] } },
{ "type": "Feature", "properties": { "place_id": "ChIJ2Tw7EiUMZ0gRghOPBieNuRM", "latitude": 53.3429428, "longitude": -6.2792462, "type": "food", "ED_ID": "268099" }, "geometry": { "type": "Point", "coordinates": [ -6.2792462, 53.342942799999989 ] } },
{ "type": "Feature", "properties": { "place_id": "ChIJjykxzC8MZ0gRF57tFs4TXfM", "latitude": 53.3469454, "longitude": -6.2816532, "type": "restaurant", "ED_ID": "268003" }, "geometry": { "type": "Point", "coordinates": [ -6.2816532, 53.3469454 ] } },
{ "type": "Feature", "properties": { "place_id": "ChIJ_b6FLS4MZ0gR_e29dnCtEbg", "latitude": 53.3472611, "longitude": -6.2819629, "type": "food", "ED_ID": "268003" }, "geometry": { "type": "Point", "coordinates": [ -6.2819629, 53.3472611 ] } },
{ "type": "Feature", "properties": { "place_id": "ChIJZSiq5ywNZ0gRALlmmVBWL-Q", "latitude": 53.3427091, "longitude": -6.2784218, "type": "restaurant", "ED_ID": "268099" }, "geometry": { "type": "Point", "coordinates": [ -6.2784218, 53.3427091 ] } },
{ "type": "Feature", "properties": { "place_id": "ChIJKUWQZLkNZ0gREWZVazE-Nwo", "latitude": 53.3470944, "longitude": -6.2800221, "type": "restaurant", "ED_ID": "268003" }, "geometry": { "type": "Point", "coordinates": [ -6.2800221, 53.3470944 ] } },
{ "type": "Feature", "properties": { "place_id": "ChIJIYci_CQMZ0gRqT0fK0o-k84", "latitude": 53.341571, "longitude": -6.2784649, "type": "restaurant", "ED_ID": "268099" }, "geometry": { "type": "Point", "coordinates": [ -6.2784649, 53.341571 ] } },
{ "type": "Feature", "properties": { "place_id": "ChIJq6oa8SQMZ0gR4YLn-pDdkv0", "latitude": 53.3410473, "longitude": -6.2782388, "type": "restaurant", "ED_ID": "268099" }, "geometry": { "type": "Point", "coordinates": [ -6.2782388, 53.3410473 ] } },
{ "type": "Feature", "properties": { "place_id": "ChIJF-JWLLwNZ0gRyLN1NTAEKT8", "latitude": 53.3428673, "longitude": -6.2761829, "type": "restaurant", "ED_ID": "268099" }, "geometry": { "type": "Point", "coordinates": [ -6.2761829, 53.342867299999988 ] } },
{ "type": "Feature", "properties": { "place_id": "ChIJ5-flOdwNZ0gRpM05zg9cr2w", "latitude": 53.3382128, "longitude": -6.2827266, "type": "restaurant", "ED_ID": "268100" }, "geometry": { "type": "Point", "coordinates": [ -6.2827266, 53.3382128 ] } },
{ "type": "Feature", "properties": { "place_id": "ChIJY-93ji4MZ0gRMYJ_TM304Aw", "latitude": 53.3489338, "longitude": -6.2789703, "type": "food", "ED_ID": "268003" }, "geometry": { "type": "Point", "coordinates": [ -6.2789703, 53.3489338 ] } },
{ "type": "Feature", "properties": { "place_id": "ChIJFRfkjS4MZ0gRrpcIYlbn3r8", "latitude": 53.3488872, "longitude": -6.2788415, "type": "restaurant", "ED_ID": "268003" }, "geometry": { "type": "Point", "coordinates": [ -6.2788415, 53.3488872 ] } },
{ "type": "Feature", "properties": { "place_id": "ChIJ2U_zwC4MZ0gRI67pTGLdiJc", "latitude": 53.348554, "longitude": -6.277579, "type": "food", "ED_ID": "268003" }, "geometry": { "type": "Point", "coordinates": [ -6.277579, 53.348554 ] } },
{ "type": "Feature", "properties": { "place_id": "ChIJSUPbEzENZ0gRfVMr9jmriT4", "latitude": 53.3398173, "longitude": -6.2756969, "type": "restaurant", "ED_ID": "268099" }, "geometry": { "type": "Point", "coordinates": [ -6.2756969, 53.3398173 ] } },
{ "type": "Feature", "properties": { "place_id": "ChIJ0WPWYzYMZ0gROVdf2UYMizc", "latitude": 53.3482267, "longitude": -6.2939767, "type": "food", "ED_ID": "268004" }, "geometry": { "type": "Point", "coordinates": [ -6.2939767, 53.3482267 ] } },
{ "type": "Feature", "properties": { "place_id": "ChIJFXQVMiwMZ0gRycmwVkh9uJI", "latitude": 53.3506425, "longitude": -6.2797224, "type": "restaurant", "ED_ID": "268002" }, "geometry": { "type": "Point", "coordinates": [ -6.2797224, 53.3506425 ] } },
{ "type": "Feature", "properties": { "place_id": "ChIJSx0piS0MZ0gRF59g7jL_M7o", "latitude": 53.3515682, "longitude": -6.2833959, "type": "restaurant", "ED_ID": "268005" }, "geometry": { "type": "Point", "coordinates": [ -6.2833959, 53.3515682 ] } },
{ "type": "Feature", "properties": { "place_id": "ChIJs45ziSgMZ0gRzzlvKUM3H5U", "latitude": 53.3458596, "longitude": -6.27213, "type": "food", "ED_ID": "268082" }, "geometry": { "type": "Point", "coordinates": [ -6.27213, 53.3458596 ] } },
{ "type": "Feature", "properties": { "place_id": "ChIJicEuVikMZ0gRA8dMc0eWQ68", "latitude": 53.3500186, "longitude": -6.2757237, "type": "restaurant", "ED_ID": "268002" }, "geometry": { "type": "Point", "coordinates": [ -6.2757237, 53.3500186 ] } },
{ "type": "Feature", "properties": { "place_id": "ChIJu7PiMqAOZ0gRYiQogBMsgoU", "latitude": 53.3519534, "longitude": -6.2795859, "type": "food", "ED_ID": "268002" }, "geometry": { "type": "Point", "coordinates": [ -6.2795859, 53.3519534 ] } },
{ "type": "Feature", "properties": { "place_id": "ChIJW6fecH8NZ0gR6NSvIcYW0AE", "latitude": 53.3405994, "longitude": -6.2865345, "type": "restaurant", "ED_ID": "268150" }, "geometry": { "type": "Point", "coordinates": [ -6.2865345, 53.3405994 ] } },
{ "type": "Feature", "properties": { "place_id": "ChIJg8jt7S4MZ0gRGL2bc0HSEHQ", "latitude": 53.3483229, "longitude": -6.2785872, "type": "restaurant", "ED_ID": "268003" }, "geometry": { "type": "Point", "coordinates": [ -6.2785872, 53.3483229 ] } },
{ "type": "Feature", "properties": { "place_id": "ChIJ7eLt7ScMZ0gRImQl9brzkMA", "latitude": 53.3437368, "longitude": -6.2700283, "type": "restaurant", "ED_ID": "268140" }, "geometry": { "type": "Point", "coordinates": [ -6.2700283, 53.343736799999988 ] } },
{ "type": "Feature", "properties": { "place_id": "ChIJB4hIxdMNZ0gRS5s2USvXjnI", "latitude": 53.3531261, "longitude": -6.2858534, "type": "restaurant", "ED_ID": "268005" }, "geometry": { "type": "Point", "coordinates": [ -6.2858534, 53.3531261 ] } },
{ "type": "Feature", "properties": { "place_id": "ChIJv83FlicMZ0gRmQSQjf3F1OA", "latitude": 53.3433821, "longitude": -6.2692277, "type": "restaurant", "ED_ID": "268140" }, "geometry": { "type": "Point", "coordinates": [ -6.2692277, 53.3433821 ] } },
{ "type": "Feature", "properties": { "place_id": "ChIJYZpN8CcMZ0gRPQfBDIuuK1E", "latitude": 53.344351, "longitude": -6.268934, "type": "restaurant", "ED_ID": "268140" }, "geometry": { "type": "Point", "coordinates": [ -6.268934, 53.344351 ] } },
{ "type": "Feature", "properties": { "place_id": "ChIJldn10v4NZ0gRC00yf1kZu3I", "latitude": 53.3441085, "longitude": -6.2681764, "type": "restaurant", "ED_ID": "268140" }, "geometry": { "type": "Point", "coordinates": [ -6.2681764, 53.3441085 ] } },
{ "type": "Feature", "properties": { "place_id": "ChIJJ7hgKJYPZ0gRXK79fxx9SH0", "latitude": 53.3449015, "longitude": -6.2679554, "type": "food", "ED_ID": "268140" }, "geometry": { "type": "Point", "coordinates": [ -6.2679554, 53.3449015 ] } },
{ "type": "Feature", "properties": { "place_id": "ChIJ-xMPV_cNZ0gRwY1IF64bwNY", "latitude": 53.3407544, "longitude": -6.2685975, "type": "restaurant", "ED_ID": "268140" }, "geometry": { "type": "Point", "coordinates": [ -6.2685975, 53.3407544 ] } },
{ "type": "Feature", "properties": { "place_id": "ChIJC2kdU50OZ0gRr8UibViCEYg", "latitude": 53.3450254, "longitude": -6.2677215, "type": "restaurant", "ED_ID": "268140" }, "geometry": { "type": "Point", "coordinates": [ -6.2677215, 53.3450254 ] } },
{ "type": "Feature", "properties": { "place_id": "ChIJ65N9WZ0OZ0gRlW2shD8PD8M", "latitude": 53.3441752, "longitude": -6.2675697, "type": "restaurant", "ED_ID": "268140" }, "geometry": { "type": "Point", "coordinates": [ -6.2675697, 53.3441752 ] } },
{ "type": "Feature", "properties": { "place_id": "ChIJY-21nIIOZ0gRnZK9cNnSwww", "latitude": 53.3471139, "longitude": -6.2683722, "type": "food", "ED_ID": "268106" }, "geometry": { "type": "Point", "coordinates": [ -6.2683722, 53.3471139 ] } },
{ "type": "Feature", "properties": { "place_id": "ChIJxR5wtMwPZ0gR8Xrlh9drTPY", "latitude": 53.3444523, "longitude": -6.2671839, "type": "restaurant", "ED_ID": "268140" }, "geometry": { "type": "Point", "coordinates": [ -6.2671839, 53.3444523 ] } },
{ "type": "Feature", "properties": { "place_id": "ChIJ-RPhTZ0OZ0gR7IoJlIL-_WA", "latitude": 53.3447606, "longitude": -6.2671901, "type": "restaurant", "ED_ID": "268140" }, "geometry": { "type": "Point", "coordinates": [ -6.2671901, 53.3447606 ] } },
{ "type": "Feature", "properties": { "place_id": "ChIJi9OsK4MOZ0gRBJgVXatL_8A", "latitude": 53.345103, "longitude": -6.267157, "type": "food", "ED_ID": "268140" }, "geometry": { "type": "Point", "coordinates": [ -6.267157, 53.345103 ] } },
{ "type": "Feature", "properties": { "place_id": "ChIJQ_LfRp0OZ0gRks5CLiNqC_Y", "latitude": 53.344324, "longitude": -6.2664409, "type": "restaurant", "ED_ID": "268140" }, "geometry": { "type": "Point", "coordinates": [ -6.2664409, 53.344324 ] } },
{ "type": "Feature", "properties": { "place_id": "ChIJs2dICSoMZ0gRCzVhHbrcffE", "latitude": 53.3513315, "longitude": -6.2700662, "type": "food", "ED_ID": "268082" }, "geometry": { "type": "Point", "coordinates": [ -6.2700662, 53.3513315 ] } },
{ "type": "Feature", "properties": { "place_id": "ChIJtTOXRIIOZ0gRiLAbrd61jVs", "latitude": 53.3486388, "longitude": -6.2667114, "type": "food", "ED_ID": "268106" }, "geometry": { "type": "Point", "coordinates": [ -6.2667114, 53.3486388 ] } },
{ "type": "Feature", "properties": { "place_id": "ChIJgft9lZ0OZ0gRk0fm5dhV20I", "latitude": 53.341305, "longitude": -6.2655699, "type": "restaurant", "ED_ID": "268140" }, "geometry": { "type": "Point", "coordinates": [ -6.2655699, 53.341305 ] } },
{ "type": "Feature", "properties": { "place_id": "ChIJ3RikV30OZ0gRdGnOXe9xpAM", "latitude": 53.3566348, "longitude": -6.2574474, "type": "park", "ED_ID": "268105" }, "geometry": { "type": "Point", "coordinates": [ -6.2574474, 53.3566348 ] } },
{ "type": "Feature", "properties": { "place_id": "ChIJBZts-H0OZ0gRBc8uGtxS1OM", "latitude": 53.356595, "longitude": -6.263199, "type": "park", "ED_ID": "268138" }, "geometry": { "type": "Point", "coordinates": [ -6.263199, 53.356595 ] } },
{ "type": "Feature", "properties": { "place_id": "ChIJ-7qXzMQPZ0gREeIfH5tZgbE", "latitude": 53.356116, "longitude": -6.2555931, "type": "park", "ED_ID": "268105" }, "geometry": { "type": "Point", "coordinates": [ -6.2555931, 53.356116 ] } },
{ "type": "Feature", "properties": { "place_id": "ChIJ2QtbQHsOZ0gRxGrsqNhEIEQ", "latitude": 53.3629763, "longitude": -6.2588329, "type": "park", "ED_ID": "268029" }, "geometry": { "type": "Point", "coordinates": [ -6.2588329, 53.3629763 ] } },
{ "type": "Feature", "properties": { "place_id": "ChIJCYaC2YYOZ0gRxFEZhvKYbOs", "latitude": 53.3538817, "longitude": -6.2641428, "type": "park", "ED_ID": "268139" }, "geometry": { "type": "Point", "coordinates": [ -6.2641428, 53.3538817 ] } },
{ "type": "Feature", "properties": { "place_id": "ChIJ6UNYs4kOZ0gRcjX7-37UPI0", "latitude": 53.3550116, "longitude": -6.2528798, "type": "park", "ED_ID": "268104" }, "geometry": { "type": "Point", "coordinates": [ -6.2528798, 53.3550116 ] } },
{ "type": "Feature", "properties": { "place_id": "ChIJb7TF3oAOZ0gRYONDZoVLbUI", "latitude": 53.3536153, "longitude": -6.264556, "type": "park", "ED_ID": "268139" }, "geometry": { "type": "Point", "coordinates": [ -6.264556, 53.353615299999987 ] } },
{ "type": "Feature", "properties": { "place_id": "ChIJl7iKN8cPZ0gREtaKF_ynX8Y", "latitude": 53.3532986, "longitude": -6.2560058, "type": "park", "ED_ID": "268104" }, "geometry": { "type": "Point", "coordinates": [ -6.2560058, 53.353298599999988 ] } },
{ "type": "Feature", "properties": { "place_id": "ChIJm43iin8OZ0gRLrI61F2gxJg", "latitude": 53.3572235, "longitude": -6.2719107, "type": "park", "ED_ID": "268081" }, "geometry": { "type": "Point", "coordinates": [ -6.2719107, 53.3572235 ] } },
{ "type": "Feature", "properties": { "place_id": "ChIJLf59gYkOZ0gRa5BkVjIzB_k", "latitude": 53.3543587, "longitude": -6.2497177, "type": "park", "ED_ID": "268104" }, "geometry": { "type": "Point", "coordinates": [ -6.2497177, 53.3543587 ] } },
{ "type": "Feature", "properties": { "place_id": "ChIJ774FSdUNZ0gRVfWM9bgQPUA", "latitude": 53.3561575, "longitude": -6.2722685, "type": "park", "ED_ID": "268081" }, "geometry": { "type": "Point", "coordinates": [ -6.2722685, 53.3561575 ] } },
{ "type": "Feature", "properties": { "place_id": "ChIJz6_GRHsPZ0gRAIeyF57pCQc", "latitude": 53.3520582, "longitude": -6.2521091, "type": "park", "ED_ID": "268104" }, "geometry": { "type": "Point", "coordinates": [ -6.2521091, 53.352058199999988 ] } },
{ "type": "Feature", "properties": { "place_id": "ChIJ2eU1xvsPZ0gR5hlAl5DpJzs", "latitude": 53.3519498, "longitude": -6.2516713, "type": "park", "ED_ID": "268104" }, "geometry": { "type": "Point", "coordinates": [ -6.2516713, 53.3519498 ] } },
{ "type": "Feature", "properties": { "place_id": "ChIJI3Z49IoOZ0gRUT9rwETvOWA", "latitude": 53.355534, "longitude": -6.2455939, "type": "park", "ED_ID": "268109" }, "geometry": { "type": "Point", "coordinates": [ -6.2455939, 53.355534 ] } },
{ "type": "Feature", "properties": { "place_id": "ChIJWyO4eG8OZ0gRjw07n_tfyaA", "latitude": 53.3677784, "longitude": -6.255764, "type": "park", "ED_ID": "268028" }, "geometry": { "type": "Point", "coordinates": [ -6.255764, 53.3677784 ] } },
{ "type": "Feature", "properties": { "place_id": "ChIJFxHlRdUPZ0gRXxe6-F8zyiE", "latitude": 53.3564953, "longitude": -6.2446024, "type": "park", "ED_ID": "268009" }, "geometry": { "type": "Point", "coordinates": [ -6.2446024, 53.3564953 ] } },
{ "type": "Feature", "properties": { "place_id": "ChIJLy4MUSoMZ0gR0Jjy_l6qt-M", "latitude": 53.3527746, "longitude": -6.2724984, "type": "park", "ED_ID": "268082" }, "geometry": { "type": "Point", "coordinates": [ -6.2724984, 53.3527746 ] } },
{ "type": "Feature", "properties": { "place_id": "ChIJS1Y2WYIOZ0gRUPs1z27thV0", "latitude": 53.3481028, "longitude": -6.2667014, "type": "park", "ED_ID": "268106" }, "geometry": { "type": "Point", "coordinates": [ -6.2667014, 53.3481028 ] } },
{ "type": "Feature", "properties": { "place_id": "ChIJ5XlVj3EOZ0gRXR3D8kAk91A", "latitude": 53.3700847, "longitude": -6.2622486, "type": "park", "ED_ID": "268028" }, "geometry": { "type": "Point", "coordinates": [ -6.2622486, 53.3700847 ] } },
{ "type": "Feature", "properties": { "place_id": "ChIJc2tQlCkMZ0gRUzCe796EepA", "latitude": 53.3491835, "longitude": -6.2712098, "type": "park", "ED_ID": "268082" }, "geometry": { "type": "Point", "coordinates": [ -6.2712098, 53.3491835 ] } },
{ "type": "Feature", "properties": { "place_id": "ChIJl8wN9igMZ0gRRSiD9ZgTIzY", "latitude": 53.3465867, "longitude": -6.2721919, "type": "park", "ED_ID": "268082" }, "geometry": { "type": "Point", "coordinates": [ -6.2721919, 53.3465867 ] } },
{ "type": "Feature", "properties": { "place_id": "ChIJ1ZrmvVkOZ0gRT0bz3YqaGqw", "latitude": 53.3622225, "longitude": -6.2327072, "type": "park", "ED_ID": "268049" }, "geometry": { "type": "Point", "coordinates": [ -6.2327072, 53.3622225 ] } },
{ "type": "Feature", "properties": { "place_id": "ChIJWY1zCRINZ0gRMWcEFYSGaNQ", "latitude": 53.3427504, "longitude": -6.2712542, "type": "park", "ED_ID": "268161" }, "geometry": { "type": "Point", "coordinates": [ -6.2712542, 53.3427504 ] } },
{ "type": "Feature", "properties": { "place_id": "ChIJ7xiH4iUMZ0gRomZlPCGXZLY", "latitude": 53.3438748, "longitude": -6.2750323, "type": "park", "ED_ID": "268098" }, "geometry": { "type": "Point", "coordinates": [ -6.2750323, 53.3438748 ] } },
{ "type": "Feature", "properties": { "place_id": "ChIJPxLz2SYMZ0gRLn9DSWYFzJQ", "latitude": 53.3402425, "longitude": -6.2711649, "type": "park", "ED_ID": "268161" }, "geometry": { "type": "Point", "coordinates": [ -6.2711649, 53.3402425 ] } },
{ "type": "Feature", "properties": { "place_id": "ChIJo5EyLpkOZ0gRfIOtBfARzQU", "latitude": 53.3381736, "longitude": -6.259119, "type": "park", "ED_ID": "268097" }, "geometry": { "type": "Point", "coordinates": [ -6.259119, 53.3381736 ] } },
{ "type": "Feature", "properties": { "place_id": "ChIJf8OhEa0NZ0gR5DNMjoizBvs", "latitude": 53.3424134, "longitude": -6.2813674, "type": "park", "ED_ID": "268099" }, "geometry": { "type": "Point", "coordinates": [ -6.2813674, 53.3424134 ] } },
{ "type": "Feature", "properties": { "place_id": "ChIJjc7Bf6INZ0gR2NSbCrwXv5c", "latitude": 53.3477604, "longitude": -6.2907082, "type": "park", "ED_ID": "268003" }, "geometry": { "type": "Point", "coordinates": [ -6.2907082, 53.3477604 ] } },
{ "type": "Feature", "properties": { "place_id": "ChIJmXbMeiAMZ0gRb0DDU6OEHfw", "latitude": 53.3366006, "longitude": -6.2670567, "type": "park", "ED_ID": "268140" }, "geometry": { "type": "Point", "coordinates": [ -6.2670567, 53.3366006 ] } },
{ "type": "Feature", "properties": { "place_id": "ChIJq6rq9OsOZ0gRH9WJjD4-bL0", "latitude": 53.3412029, "longitude": -6.2338674, "type": "park", "ED_ID": "268115" }, "geometry": { "type": "Point", "coordinates": [ -6.2338674, 53.3412029 ] } },
{ "type": "Feature", "properties": { "place_id": "ChIJ8wn3M5UPZ0gRbCw-oF8r6V0", "latitude": 53.3829168, "longitude": -6.262547, "type": "park", "ED_ID": "268157" }, "geometry": { "type": "Point", "coordinates": [ -6.262547, 53.3829168 ] } },
{ "type": "Feature", "properties": { "place_id": "ChIJvRdQsTwMZ0gR__jh8sx2k4k", "latitude": 53.3379946, "longitude": -6.2811672, "type": "park", "ED_ID": "268100" }, "geometry": { "type": "Point", "coordinates": [ -6.2811672, 53.337994599999988 ] } },
{ "type": "Feature", "properties": { "place_id": "ChIJwWP5_Q0OZ0gR84q_Wr5Htoo", "latitude": 53.3832301, "longitude": -6.2633996, "type": "park", "ED_ID": "268157" }, "geometry": { "type": "Point", "coordinates": [ -6.2633996, 53.383230100000013 ] } },
{ "type": "Feature", "properties": { "place_id": "ChIJNchkhOoOZ0gRyrIz1BYRovw", "latitude": 53.3363513, "longitude": -6.2352505, "type": "park", "ED_ID": "268115" }, "geometry": { "type": "Point", "coordinates": [ -6.2352505, 53.3363513 ] } },
{ "type": "Feature", "properties": { "place_id": "ChIJ-2-Zu3MOZ0gRgVD1nD_EVGE", "latitude": 53.3843249, "longitude": -6.2817426, "type": "park", "ED_ID": "268013" }, "geometry": { "type": "Point", "coordinates": [ -6.2817426, 53.3843249 ] } },
{ "type": "Feature", "properties": { "place_id": "ChIJNdujlTsOZ0gRdR5mkck87B4", "latitude": 53.3861562, "longitude": -6.2402827, "type": "park", "ED_ID": "268160" }, "geometry": { "type": "Point", "coordinates": [ -6.2402827, 53.386156199999988 ] } },
{ "type": "Feature", "properties": { "place_id": "ChIJ74f4EOMNZ0gRNP151qrsOnk", "latitude": 53.3858212, "longitude": -6.282176, "type": "park", "ED_ID": "268013" }, "geometry": { "type": "Point", "coordinates": [ -6.282176, 53.3858212 ] } },
{ "type": "Feature", "properties": { "place_id": "ChIJPfnukVwOZ0gROclkSGAM8-A", "latitude": 53.3662864, "longitude": -6.2391921, "type": "park", "ED_ID": "268050" }, "geometry": { "type": "Point", "coordinates": [ -6.2391921, 53.3662864 ] } },
{ "type": "Feature", "properties": { "place_id": "ChIJZWnQH9kNZ0gRG7vtVAYqsEM", "latitude": 53.3512314, "longitude": -6.287119, "type": "park", "ED_ID": "268005" }, "geometry": { "type": "Point", "coordinates": [ -6.287119, 53.3512314 ] } },
{ "type": "Feature", "properties": { "place_id": "ChIJOeH71J4OZ0gRRzs0p-2vgfA", "latitude": 53.3375774, "longitude": -6.2596894, "type": "park", "ED_ID": "268097" }, "geometry": { "type": "Point", "coordinates": [ -6.2596894, 53.3375774 ] } },
{ "type": "Feature", "properties": { "place_id": "ChIJVS0zE0gOZ0gRCPFudybllwg", "latitude": 53.3780994, "longitude": -6.2324362, "type": "park", "ED_ID": "268070" }, "geometry": { "type": "Point", "coordinates": [ -6.2324362, 53.3780994 ] } },
{ "type": "Feature", "properties": { "place_id": "ChIJo2-VTL4OZ0gR66Q6bsNh-BQ", "latitude": 53.3338873, "longitude": -6.241202, "type": "park", "ED_ID": "268117" }, "geometry": { "type": "Point", "coordinates": [ -6.241202, 53.3338873 ] } },
{ "type": "Feature", "properties": { "place_id": "ChIJy16wdLgPZ0gRbxakKMHwzPc", "latitude": 53.3414791, "longitude": -6.2202969, "type": "park", "ED_ID": "268110" }, "geometry": { "type": "Point", "coordinates": [ -6.2202969, 53.3414791 ] } },
{ "type": "Feature", "properties": { "place_id": "ChIJYV9praUOZ0gRsFmX3hgyJts", "latitude": 53.3267454, "longitude": -6.2542997, "type": "park", "ED_ID": "268128" }, "geometry": { "type": "Point", "coordinates": [ -6.2542997, 53.3267454 ] } },
{ "type": "Feature", "properties": { "place_id": "ChIJO4Bom9gPZ0gR9Y5JmQ31dr4", "latitude": 53.3809218, "longitude": -6.2202918, "type": "park", "ED_ID": "268024" }, "geometry": { "type": "Point", "coordinates": [ -6.2202918, 53.3809218 ] } },
{ "type": "Feature", "properties": { "place_id": "ChIJfaRS1bUPZ0gRMG-hwyg7cBs", "latitude": 53.3776616, "longitude": -6.2136948, "type": "park", "ED_ID": "268047" }, "geometry": { "type": "Point", "coordinates": [ -6.2136948, 53.3776616 ] } },
{ "type": "Feature", "properties": { "place_id": "ChIJA6VOHt4OZ0gRRpPNUiRM4kY", "latitude": 53.3368817, "longitude": -6.2156848, "type": "park", "ED_ID": "268110" }, "geometry": { "type": "Point", "coordinates": [ -6.2156848, 53.3368817 ] } },
{ "type": "Feature", "properties": { "place_id": "ChIJsRO-0sQPZ0gRL7rk9y7he1w", "latitude": 53.3263689, "longitude": -6.2349694, "type": "park", "ED_ID": "268116" }, "geometry": { "type": "Point", "coordinates": [ -6.2349694, 53.3263689 ] } },
{ "type": "Feature", "properties": { "place_id": "ChIJxaUCaxAMZ0gRSnHLMSLvSqU", "latitude": 53.3242623, "longitude": -6.2790664, "type": "park", "ED_ID": "268092" }, "geometry": { "type": "Point", "coordinates": [ -6.2790664, 53.3242623 ] } },
{ "type": "Feature", "properties": { "place_id": "ChIJRziLUN4OZ0gRmtRpYiQtpdc", "latitude": 53.335139, "longitude": -6.2134887, "type": "park", "ED_ID": "268110" }, "geometry": { "type": "Point", "coordinates": [ -6.2134887, 53.335139 ] } },
{ "type": "Feature", "properties": { "place_id": "ChIJH2Xm1x0OZ0gRUAv6BTZy4EA", "latitude": 53.3977707, "longitude": -6.2588953, "type": "park", "ED_ID": "268017" }, "geometry": { "type": "Point", "coordinates": [ -6.2588953, 53.3977707 ] } },
{ "type": "Feature", "properties": { "place_id": "ChIJpRpOJOgNZ0gRd7fsewMFW2M", "latitude": 53.3320794, "longitude": -6.3085351, "type": "park", "ED_ID": "268052" }, "geometry": { "type": "Point", "coordinates": [ -6.3085351, 53.3320794 ] } },
{ "type": "Feature", "properties": { "place_id": "ChIJx0IOXQASZ0gR74ShRfBFSbs", "latitude": 53.3971898, "longitude": -6.2792062, "type": "park", "ED_ID": "268015" }, "geometry": { "type": "Point", "coordinates": [ -6.2792062, 53.3971898 ] } },
{ "type": "Feature", "properties": { "place_id": "ChIJAVR-KW0MZ0gRRoQEyb21eP0", "latitude": 53.3231477, "longitude": -6.2922037, "type": "park", "ED_ID": "268092" }, "geometry": { "type": "Point", "coordinates": [ -6.2922037, 53.3231477 ] } },
{ "type": "Feature", "properties": { "place_id": "ChIJP5qmwJgNZ0gRWpccrI-yh7g", "latitude": 53.376045, "longitude": -6.323243, "type": "park", "ED_ID": "268006" }, "geometry": { "type": "Point", "coordinates": [ -6.323243, 53.376045 ] } },
{ "type": "Feature", "properties": { "place_id": "ChIJe1F08akNZ0gRa1ndmi3YJqE", "latitude": 53.3558823, "longitude": -6.3298133, "type": "park", "ED_ID": "268118" }, "geometry": { "type": "Point", "coordinates": [ -6.3298133, 53.3558823 ] } },
{ "type": "Feature", "properties": { "place_id": "ChIJP_DSbN8RZ0gRoPAQHrxWmps", "latitude": 53.4015019, "longitude": -6.2512695, "type": "park", "ED_ID": "267001" }, "geometry": { "type": "Point", "coordinates": [ -6.2512695, 53.4015019 ] } },
{ "type": "Feature", "properties": { "place_id": "ChIJvxx7M4UOZ0gRphQzDC9OOvg", "latitude": 53.3456887, "longitude": -6.2561935, "type": "police", "ED_ID": "268096" }, "geometry": { "type": "Point", "coordinates": [ -6.2561935, 53.3456887 ] } },
{ "type": "Feature", "properties": { "place_id": "ChIJtf6m4I4OZ0gRvh1bG4ObpTE", "latitude": 53.3504549, "longitude": -6.2522599, "type": "police", "ED_ID": "268104" }, "geometry": { "type": "Point", "coordinates": [ -6.2522599, 53.3504549 ] } },
{ "type": "Feature", "properties": { "place_id": "ChIJdf6fnJcOZ0gRcqRHA3HDnJA", "latitude": 53.3372634, "longitude": -6.2518829, "type": "police", "ED_ID": "268097" }, "geometry": { "type": "Point", "coordinates": [ -6.2518829, 53.3372634 ] } },
{ "type": "Feature", "properties": { "place_id": "ChIJIcy3y5wOZ0gRoXj7oNw--z8", "latitude": 53.3361942, "longitude": -6.2522062, "type": "police", "ED_ID": "268097" }, "geometry": { "type": "Point", "coordinates": [ -6.2522062, 53.336194199999987 ] } },
{ "type": "Feature", "properties": { "place_id": "ChIJQWhgJJ8OZ0gRnEOn79H7AoM", "latitude": 53.3368499, "longitude": -6.2605434, "type": "police", "ED_ID": "268142" }, "geometry": { "type": "Point", "coordinates": [ -6.2605434, 53.3368499 ] } },
{ "type": "Feature", "properties": { "place_id": "ChIJv9wRu4YOZ0gRzSQ4jIU2mNA", "latitude": 53.3516368, "longitude": -6.2615423, "type": "police", "ED_ID": "268106" }, "geometry": { "type": "Point", "coordinates": [ -6.2615423, 53.351636799999987 ] } },
{ "type": "Feature", "properties": { "place_id": "ChIJjU7DOyEMZ0gR9Erx_n6dSNw", "latitude": 53.3383279, "longitude": -6.2694449, "type": "police", "ED_ID": "268161" }, "geometry": { "type": "Point", "coordinates": [ -6.2694449, 53.3383279 ] } },
{ "type": "Feature", "properties": { "place_id": "ChIJ50sQ3CgMZ0gRdwDCaMXjU8E", "latitude": 53.3470916, "longitude": -6.274115, "type": "police", "ED_ID": "268082" }, "geometry": { "type": "Point", "coordinates": [ -6.274115, 53.3470916 ] } },
{ "type": "Feature", "properties": { "place_id": "ChIJdWzQ5IYOZ0gRxajOykKlqV8", "latitude": 53.3531318, "longitude": -6.2604724, "type": "bus_station", "ED_ID": "268138" }, "geometry": { "type": "Point", "coordinates": [ -6.2604724, 53.3531318 ] } },
{ "type": "Feature", "properties": { "place_id": "ChIJN2nOjIYOZ0gRDc9twNLZh64", "latitude": 53.3522532, "longitude": -6.2598923, "type": "bus_station", "ED_ID": "268138" }, "geometry": { "type": "Point", "coordinates": [ -6.2598923, 53.3522532 ] } },
{ "type": "Feature", "properties": { "place_id": "ChIJMSdRCX4OZ0gRxv1dnds0h6s", "latitude": 53.3570923, "longitude": -6.2644117, "type": "bus_station", "ED_ID": "268081" }, "geometry": { "type": "Point", "coordinates": [ -6.2644117, 53.3570923 ] } },
{ "type": "Feature", "properties": { "place_id": "ChIJgTHsSY8OZ0gRV74Ka-wdVY4", "latitude": 53.3507698, "longitude": -6.2538992, "type": "bus_station", "ED_ID": "268104" }, "geometry": { "type": "Point", "coordinates": [ -6.2538992, 53.3507698 ] } },
{ "type": "Feature", "properties": { "place_id": "ChIJu4uAooUOZ0gRKruhRgmGUYM", "latitude": 53.3489114, "longitude": -6.2568793, "type": "bus_station", "ED_ID": "268106" }, "geometry": { "type": "Point", "coordinates": [ -6.2568793, 53.3489114 ] } },
{ "type": "Feature", "properties": { "place_id": "ChIJiewbBIUOZ0gRRHA3IkzuFY4", "latitude": 53.3479612, "longitude": -6.257844, "type": "bus_station", "ED_ID": "268106" }, "geometry": { "type": "Point", "coordinates": [ -6.257844, 53.3479612 ] } },
{ "type": "Feature", "properties": { "place_id": "ChIJjYvRHoUOZ0gR4EmFayQeNEw", "latitude": 53.348038, "longitude": -6.256339, "type": "bus_station", "ED_ID": "268106" }, "geometry": { "type": "Point", "coordinates": [ -6.256339, 53.348038 ] } },
{ "type": "Feature", "properties": { "place_id": "ChIJ62j5xo4OZ0gRO2XuAqo4ezw", "latitude": 53.3503316, "longitude": -6.2504407, "type": "bus_station", "ED_ID": "268109" }, "geometry": { "type": "Point", "coordinates": [ -6.2504407, 53.3503316 ] } },
{ "type": "Feature", "properties": { "place_id": "ChIJecKlFoUOZ0gRhaPqdIAC4Bc", "latitude": 53.3473113, "longitude": -6.2567921, "type": "bus_station", "ED_ID": "268096" }, "geometry": { "type": "Point", "coordinates": [ -6.2567921, 53.347311299999987 ] } },
{ "type": "Feature", "properties": { "place_id": "ChIJHQXo3oQOZ0gR7sYA5v1SfWo", "latitude": 53.3466922, "longitude": -6.2583464, "type": "bus_station", "ED_ID": "268096" }, "geometry": { "type": "Point", "coordinates": [ -6.2583464, 53.3466922 ] } },
{ "type": "Feature", "properties": { "place_id": "ChIJr-HnzJoOZ0gRnsP32-WUsYo", "latitude": 53.3455312, "longitude": -6.2566668, "type": "bus_station", "ED_ID": "268096" }, "geometry": { "type": "Point", "coordinates": [ -6.2566668, 53.3455312 ] } },
{ "type": "Feature", "properties": { "place_id": "ChIJmy44ySsMZ0gRL7JGa1JdXK0", "latitude": 53.3511978, "longitude": -6.2737015, "type": "bus_station", "ED_ID": "268082" }, "geometry": { "type": "Point", "coordinates": [ -6.2737015, 53.3511978 ] } },
{ "type": "Feature", "properties": { "place_id": "ChIJ-5ayy5oOZ0gRMRp31UUMzP4", "latitude": 53.3454513, "longitude": -6.2562461, "type": "bus_station", "ED_ID": "268096" }, "geometry": { "type": "Point", "coordinates": [ -6.2562461, 53.3454513 ] } },
{ "type": "Feature", "properties": { "place_id": "ChIJmSfDSnsOZ0gRb03ekP3KbDc", "latitude": 53.3629171, "longitude": -6.2584359, "type": "bus_station", "ED_ID": "268029" }, "geometry": { "type": "Point", "coordinates": [ -6.2584359, 53.3629171 ] } },
{ "type": "Feature", "properties": { "place_id": "ChIJn0ely2QOZ0gRq0HEOEfo62s", "latitude": 53.3630696, "longitude": -6.2584147, "type": "bus_station", "ED_ID": "268029" }, "geometry": { "type": "Point", "coordinates": [ -6.2584147, 53.3630696 ] } },
{ "type": "Feature", "properties": { "place_id": "ChIJ8SI1ppoOZ0gRybV05VzMAX4", "latitude": 53.3449502, "longitude": -6.2539196, "type": "bus_station", "ED_ID": "268096" }, "geometry": { "type": "Point", "coordinates": [ -6.2539196, 53.3449502 ] } },
{ "type": "Feature", "properties": { "place_id": "ChIJdW8MbigMZ0gRqfDilc0PVRo", "latitude": 53.3457605, "longitude": -6.2708425, "type": "bus_station", "ED_ID": "268082" }, "geometry": { "type": "Point", "coordinates": [ -6.2708425, 53.3457605 ] } },
{ "type": "Feature", "properties": { "place_id": "ChIJLZcdsJ0OZ0gRde6fXsdryvI", "latitude": 53.3436582, "longitude": -6.2645797, "type": "bus_station", "ED_ID": "268140" }, "geometry": { "type": "Point", "coordinates": [ -6.2645797, 53.3436582 ] } },
{ "type": "Feature", "properties": { "place_id": "ChIJ5_2i1ygMZ0gRYB94jBe1Jm8", "latitude": 53.3473225, "longitude": -6.2750785, "type": "bus_station", "ED_ID": "268003" }, "geometry": { "type": "Point", "coordinates": [ -6.2750785, 53.3473225 ] } },
{ "type": "Feature", "properties": { "place_id": "ChIJ5cwSmZEOZ0gRFKNoNN2qx14", "latitude": 53.3438668, "longitude": -6.2483086, "type": "bus_station", "ED_ID": "268096" }, "geometry": { "type": "Point", "coordinates": [ -6.2483086, 53.3438668 ] } },
{ "type": "Feature", "properties": { "place_id": "ChIJfR6Fji0MZ0gRaTCzW3zz4rA", "latitude": 53.3513988, "longitude": -6.2831713, "type": "department_store", "ED_ID": "268005" }, "geometry": { "type": "Point", "coordinates": [ -6.2831713, 53.3513988 ] } },
{ "type": "Feature", "properties": { "place_id": "ChIJrxbk3IMOZ0gRr_atohQddkU", "latitude": 53.3504444, "longitude": -6.2646011, "type": "home_goods_store", "ED_ID": "268106" }, "geometry": { "type": "Point", "coordinates": [ -6.2646011, 53.3504444 ] } },
{ "type": "Feature", "properties": { "place_id": "ChIJ-7IJ44MOZ0gR9KyXJ4KrMZM", "latitude": 53.3504923, "longitude": -6.2635367, "type": "department_store", "ED_ID": "268106" }, "geometry": { "type": "Point", "coordinates": [ -6.2635367, 53.350492300000013 ] } },
{ "type": "Feature", "properties": { "place_id": "ChIJnShz_4IOZ0gRjUklgFnsl3A", "latitude": 53.3487209, "longitude": -6.2657807, "type": "department_store", "ED_ID": "268106" }, "geometry": { "type": "Point", "coordinates": [ -6.2657807, 53.3487209 ] } },
{ "type": "Feature", "properties": { "place_id": "ChIJs-s79YMOZ0gRuedHUMYPupE", "latitude": 53.3497637, "longitude": -6.2633135, "type": "grocery_or_supermarket", "ED_ID": "268106" }, "geometry": { "type": "Point", "coordinates": [ -6.2633135, 53.3497637 ] } },
{ "type": "Feature", "properties": { "place_id": "ChIJ19axsIMOZ0gRsz4tFcp1RAs", "latitude": 53.3488949, "longitude": -6.2647398, "type": "grocery_or_supermarket", "ED_ID": "268106" }, "geometry": { "type": "Point", "coordinates": [ -6.2647398, 53.3488949 ] } },
{ "type": "Feature", "properties": { "place_id": "ChIJp5v9-YIOZ0gRmnQDxNDR7nc", "latitude": 53.3482378, "longitude": -6.2661793, "type": "home_goods_store", "ED_ID": "268106" }, "geometry": { "type": "Point", "coordinates": [ -6.2661793, 53.3482378 ] } },
{ "type": "Feature", "properties": { "place_id": "ChIJ9wcNE4QOZ0gRfvZo4ZTxlOU", "latitude": 53.3491377, "longitude": -6.2631308, "type": "home_goods_store", "ED_ID": "268106" }, "geometry": { "type": "Point", "coordinates": [ -6.2631308, 53.3491377 ] } },
{ "type": "Feature", "properties": { "place_id": "ChIJ-3Zy_zYMZ0gRYsVNNGtOzr0", "latitude": 53.3464272, "longitude": -6.2942186, "type": "grocery_or_supermarket", "ED_ID": "268148" }, "geometry": { "type": "Point", "coordinates": [ -6.2942186, 53.3464272 ] } },
{ "type": "Feature", "properties": { "place_id": "ChIJ40O1eIMOZ0gRZImg64Vm4ac", "latitude": 53.3479405, "longitude": -6.2623365, "type": "department_store", "ED_ID": "268106" }, "geometry": { "type": "Point", "coordinates": [ -6.2623365, 53.3479405 ] } },
{ "type": "Feature", "properties": { "place_id": "ChIJXbJ9zIUOZ0gRu6E4Itvf-Zg", "latitude": 53.3500019, "longitude": -6.2586148, "type": "home_goods_store", "ED_ID": "268106" }, "geometry": { "type": "Point", "coordinates": [ -6.2586148, 53.3500019 ] } },
{ "type": "Feature", "properties": { "place_id": "ChIJsYbzV48OZ0gRq3mGVBAGHeE", "latitude": 53.3500118, "longitude": -6.2585462, "type": "department_store", "ED_ID": "268106" }, "geometry": { "type": "Point", "coordinates": [ -6.2585462, 53.3500118 ] } },
{ "type": "Feature", "properties": { "place_id": "ChIJXe6PLn4OZ0gR7LJrEVQpxJM", "latitude": 53.3564121, "longitude": -6.2669353, "type": "car_wash", "ED_ID": "268081" }, "geometry": { "type": "Point", "coordinates": [ -6.2669353, 53.3564121 ] } },
{ "type": "Feature", "properties": { "place_id": "ChIJMaaalNUNZ0gR3N07gXXEgH4", "latitude": 53.360335, "longitude": -6.2728238, "type": "car_wash", "ED_ID": "268001" }, "geometry": { "type": "Point", "coordinates": [ -6.2728238, 53.360335 ] } },
{ "type": "Feature", "properties": { "place_id": "ChIJfeucooEOZ0gREHQDSEBSUr0", "latitude": 53.3519205, "longitude": -6.2670196, "type": "car_wash", "ED_ID": "268139" }, "geometry": { "type": "Point", "coordinates": [ -6.2670196, 53.351920500000013 ] } },
{ "type": "Feature", "properties": { "place_id": "ChIJQ2Z8Z4YOZ0gRgV-dYNuSeSI", "latitude": 53.3523111, "longitude": -6.2584291, "type": "car_wash", "ED_ID": "268106" }, "geometry": { "type": "Point", "coordinates": [ -6.2584291, 53.3523111 ] } },
{ "type": "Feature", "properties": { "place_id": "ChIJDflq4IMOZ0gRjGbypcUn0jw", "latitude": 53.350608, "longitude": -6.26414, "type": "car_wash", "ED_ID": "268106" }, "geometry": { "type": "Point", "coordinates": [ -6.26414, 53.350608 ] } },
{ "type": "Feature", "properties": { "place_id": "ChIJlb-CycoNZ0gRHQqIU9AxzIs", "latitude": 53.362025, "longitude": -6.2765495, "type": "car_wash", "ED_ID": "268030" }, "geometry": { "type": "Point", "coordinates": [ -6.2765495, 53.362025 ] } },
{ "type": "Feature", "properties": { "place_id": "ChIJW_mMAoIOZ0gREDv76fvu_3o", "latitude": 53.3503823, "longitude": -6.2687639, "type": "car_wash", "ED_ID": "268139" }, "geometry": { "type": "Point", "coordinates": [ -6.2687639, 53.3503823 ] } },
{ "type": "Feature", "properties": { "place_id": "ChIJz74I27IPZ0gRN392Moet0P4", "latitude": 53.3498115, "longitude": -6.2627247, "type": "car_wash", "ED_ID": "268106" }, "geometry": { "type": "Point", "coordinates": [ -6.2627247, 53.349811499999987 ] } },
{ "type": "Feature", "properties": { "place_id": "ChIJ8RX-6tUPZ0gRKuHxTQ_E6pQ", "latitude": 53.3498053, "longitude": -6.2603097, "type": "car_wash", "ED_ID": "268106" }, "geometry": { "type": "Point", "coordinates": [ -6.2603097, 53.3498053 ] } },
{ "type": "Feature", "properties": { "place_id": "ChIJ_adyR3YPZ0gRU4LX7WpfyIk", "latitude": 53.3498053, "longitude": -6.2603097, "type": "car_wash", "ED_ID": "268106" }, "geometry": { "type": "Point", "coordinates": [ -6.2603097, 53.3498053 ] } },
{ "type": "Feature", "properties": { "place_id": "ChIJcY7dq78PZ0gRCsn95_HTk2I", "latitude": 53.3487891, "longitude": -6.2623524, "type": "car_wash", "ED_ID": "268106" }, "geometry": { "type": "Point", "coordinates": [ -6.2623524, 53.3487891 ] } },
{ "type": "Feature", "properties": { "place_id": "ChIJ1enAVIwPZ0gRuWNz4jklbjY", "latitude": 53.3480061, "longitude": -6.2662332, "type": "car_wash", "ED_ID": "268106" }, "geometry": { "type": "Point", "coordinates": [ -6.2662332, 53.3480061 ] } },
{ "type": "Feature", "properties": { "place_id": "ChIJfwiNwqwPZ0gR-LhqbjQ3MvQ", "latitude": 53.3534596, "longitude": -6.2474928, "type": "car_wash", "ED_ID": "268109" }, "geometry": { "type": "Point", "coordinates": [ -6.2474928, 53.353459599999987 ] } },
{ "type": "Feature", "properties": { "place_id": "ChIJI4Zb4MUPZ0gRO7eBTtofco0", "latitude": 53.3473878, "longitude": -6.2661279, "type": "car_wash", "ED_ID": "268106" }, "geometry": { "type": "Point", "coordinates": [ -6.2661279, 53.3473878 ] } },
{ "type": "Feature", "properties": { "place_id": "ChIJNTgcEOYPZ0gRGIlESmxinC4", "latitude": 53.3473033, "longitude": -6.2661942, "type": "car_wash", "ED_ID": "268106" }, "geometry": { "type": "Point", "coordinates": [ -6.2661942, 53.3473033 ] } },
{ "type": "Feature", "properties": { "place_id": "ChIJtRUY8IIOZ0gRsMvOXLA6FHo", "latitude": 53.3472386, "longitude": -6.2661928, "type": "car_wash", "ED_ID": "268106" }, "geometry": { "type": "Point", "coordinates": [ -6.2661928, 53.3472386 ] } },
{ "type": "Feature", "properties": { "place_id": "ChIJ5SF_U4IOZ0gREDm_okGiqXU", "latitude": 53.3472142, "longitude": -6.2664431, "type": "car_wash", "ED_ID": "268106" }, "geometry": { "type": "Point", "coordinates": [ -6.2664431, 53.3472142 ] } },
{ "type": "Feature", "properties": { "place_id": "ChIJA8Q7sGcOZ0gRRs89BBJrLnE", "latitude": 53.365848, "longitude": -6.247658, "type": "car_wash", "ED_ID": "268058" }, "geometry": { "type": "Point", "coordinates": [ -6.247658, 53.365848 ] } },
{ "type": "Feature", "properties": { "place_id": "ChIJLVsLdg4MZ0gRls68OuvLaC0", "latitude": 53.3550821, "longitude": -6.286261, "type": "car_wash", "ED_ID": "268002" }, "geometry": { "type": "Point", "coordinates": [ -6.286261, 53.3550821 ] } },
{ "type": "Feature", "properties": { "place_id": "ChIJLYh0kl8OZ0gRDW-Hw_McTTc", "latitude": 53.3580292, "longitude": -6.241027, "type": "car_wash", "ED_ID": "268107" }, "geometry": { "type": "Point", "coordinates": [ -6.241027, 53.3580292 ] } },
{ "type": "Feature", "properties": { "place_id": "ChIJaaZbY-UNZ0gR-KSoN_tSIDU", "latitude": 53.3564279, "longitude": -6.2871392, "type": "car_wash", "ED_ID": "268002" }, "geometry": { "type": "Point", "coordinates": [ -6.2871392, 53.3564279 ] } },
{ "type": "Feature", "properties": { "place_id": "ChIJKSVkxzIMZ0gRMKsjNMpBt_s", "latitude": 53.3540349, "longitude": -6.2861225, "type": "car_wash", "ED_ID": "268002" }, "geometry": { "type": "Point", "coordinates": [ -6.2861225, 53.3540349 ] } },
{ "type": "Feature", "properties": { "place_id": "ChIJXzDNtDIMZ0gRpTUzE029PiM", "latitude": 53.3549394, "longitude": -6.2871101, "type": "car_wash", "ED_ID": "268002" }, "geometry": { "type": "Point", "coordinates": [ -6.2871101, 53.3549394 ] } },
{ "type": "Feature", "properties": { "place_id": "ChIJeRgmJ0EPZ0gRmPVT8U_srNs", "latitude": 53.3438218, "longitude": -6.2624447, "type": "car_wash", "ED_ID": "268140" }, "geometry": { "type": "Point", "coordinates": [ -6.2624447, 53.3438218 ] } },
{ "type": "Feature", "properties": { "place_id": "ChIJf5yybF8OZ0gRhHFtXsakmWQ", "latitude": 53.3588121, "longitude": -6.2384909, "type": "car_wash", "ED_ID": "268107" }, "geometry": { "type": "Point", "coordinates": [ -6.2384909, 53.358812099999987 ] } },
{ "type": "Feature", "properties": { "place_id": "ChIJP5TCzEcNZ0gRc9-_qyaEskA", "latitude": 53.3710899, "longitude": -6.2809296, "type": "car_wash", "ED_ID": "268030" }, "geometry": { "type": "Point", "coordinates": [ -6.2809296, 53.371089899999987 ] } },
{ "type": "Feature", "properties": { "place_id": "ChIJnxUD95wOZ0gRr0HVphQ-wmU", "latitude": 53.341668, "longitude": -6.263891, "type": "car_wash", "ED_ID": "268141" }, "geometry": { "type": "Point", "coordinates": [ -6.263891, 53.341668 ] } },
{ "type": "Feature", "properties": { "place_id": "ChIJV9_e5n4NZ0gR9R-4JB7mauI", "latitude": 53.3729894, "longitude": -6.284366, "type": "car_wash", "ED_ID": "268030" }, "geometry": { "type": "Point", "coordinates": [ -6.284366, 53.3729894 ] } },
{ "type": "Feature", "properties": { "place_id": "ChIJdf-RXtwNZ0gRtNT28Q6z_lQ", "latitude": 53.372852, "longitude": -6.284816, "type": "car_wash", "ED_ID": "268030" }, "geometry": { "type": "Point", "coordinates": [ -6.284816, 53.372852 ] } },
{ "type": "Feature", "properties": { "place_id": "ChIJy_d6gZkOZ0gRxVhHnjvSt9Y", "latitude": 53.340283, "longitude": -6.256617, "type": "car_wash", "ED_ID": "268097" }, "geometry": { "type": "Point", "coordinates": [ -6.256617, 53.340283 ] } },
{ "type": "Feature", "properties": { "place_id": "ChIJSd6D48kNZ0gRGEep46QKMDE", "latitude": 53.3605341, "longitude": -6.2995206, "type": "car_wash", "ED_ID": "268036" }, "geometry": { "type": "Point", "coordinates": [ -6.2995206, 53.3605341 ] } },
{ "type": "Feature", "properties": { "place_id": "ChIJu2Q-jo8NZ0gR2qHZBAI7I4s", "latitude": 53.3398426, "longitude": -6.2861666, "type": "car_wash", "ED_ID": "268150" }, "geometry": { "type": "Point", "coordinates": [ -6.2861666, 53.3398426 ] } },
{ "type": "Feature", "properties": { "place_id": "ChIJ06HSSgwOZ0gRBaexheSXR2E", "latitude": 53.3819082, "longitude": -6.2660857, "type": "car_wash", "ED_ID": "268011" }, "geometry": { "type": "Point", "coordinates": [ -6.2660857, 53.3819082 ] } },
{ "type": "Feature", "properties": { "place_id": "ChIJrcM4N_cPZ0gRVCuIBd0daJQ", "latitude": 53.364299, "longitude": -6.225637, "type": "car_wash", "ED_ID": "268048" }, "geometry": { "type": "Point", "coordinates": [ -6.225637, 53.364299 ] } },
{ "type": "Feature", "properties": { "place_id": "ChIJdZLAl0cMZ0gRdC0oe4oaZ-g", "latitude": 53.3416082, "longitude": -6.2972244, "type": "car_wash", "ED_ID": "268148" }, "geometry": { "type": "Point", "coordinates": [ -6.2972244, 53.3416082 ] } },
{ "type": "Feature", "properties": { "place_id": "ChIJbaPkA1oNZ0gRINBpkHJ42QQ", "latitude": 53.3252467, "longitude": -6.2672107, "type": "car_wash", "ED_ID": "268132" }, "geometry": { "type": "Point", "coordinates": [ -6.2672107, 53.3252467 ] } },
{ "type": "Feature", "properties": { "place_id": "ChIJKf2a5QIMZ0gRdahMAlvXGt8", "latitude": 53.3231891, "longitude": -6.2639917, "type": "car_wash", "ED_ID": "268133" }, "geometry": { "type": "Point", "coordinates": [ -6.2639917, 53.3231891 ] } },
{ "type": "Feature", "properties": { "place_id": "ChIJd9usuSMOZ0gR4bNQP9ZwUbM", "latitude": 53.393564, "longitude": -6.2478663, "type": "car_wash", "ED_ID": "268159" }, "geometry": { "type": "Point", "coordinates": [ -6.2478663, 53.393564 ] } },
{ "type": "Feature", "properties": { "place_id": "ChIJx242MUkPZ0gRuTP1q5s5AB4", "latitude": 53.3832042, "longitude": -6.2169109, "type": "car_wash", "ED_ID": "268024" }, "geometry": { "type": "Point", "coordinates": [ -6.2169109, 53.383204199999987 ] } },
{ "type": "Feature", "properties": { "place_id": "ChIJZyuL3MsPZ0gRPo8_LO5HlC4", "latitude": 53.3841966, "longitude": -6.2145723, "type": "car_wash", "ED_ID": "268023" }, "geometry": { "type": "Point", "coordinates": [ -6.2145723, 53.3841966 ] } },
{ "type": "Feature", "properties": { "place_id": "ChIJUTQv5l0PZ0gRRFPQSpoPIlA", "latitude": 53.3398649, "longitude": -6.2632316, "type": "car_wash", "ED_ID": "268141" }, "geometry": { "type": "Point", "coordinates": [ -6.2632316, 53.3398649 ] } },
{ "type": "Feature", "properties": { "place_id": "ChIJrz0QgOoNZ0gRv-pXrG3dirc", "latitude": 53.3764494, "longitude": -6.3087628, "type": "car_wash", "ED_ID": "268033" }, "geometry": { "type": "Point", "coordinates": [ -6.3087628, 53.376449400000013 ] } },
{ "type": "Feature", "properties": { "place_id": "ChIJX-2hixMNZ0gRnMbjpo6_CHI", "latitude": 53.3254087, "longitude": -6.2656471, "type": "car_wash", "ED_ID": "268132" }, "geometry": { "type": "Point", "coordinates": [ -6.2656471, 53.3254087 ] } },
{ "type": "Feature", "properties": { "place_id": "ChIJr2CNnisOZ0gRod_MvpQl1Qg", "latitude": 53.3969802, "longitude": -6.2278752, "type": "car_wash", "ED_ID": "268088" }, "geometry": { "type": "Point", "coordinates": [ -6.2278752, 53.396980199999987 ] } },
{ "type": "Feature", "properties": { "place_id": "ChIJqYyo1lVtZ0gReR9Kbju82Rg", "latitude": 53.3845196, "longitude": -6.204315, "type": "car_wash", "ED_ID": "268023" }, "geometry": { "type": "Point", "coordinates": [ -6.204315, 53.3845196 ] } },
{ "type": "Feature", "properties": { "place_id": "ChIJlTqSQvENZ0gR_JZhZN46Tik", "latitude": 53.3965347, "longitude": -6.3040072, "type": "car_wash", "ED_ID": "268065" }, "geometry": { "type": "Point", "coordinates": [ -6.3040072, 53.3965347 ] } },
{ "type": "Feature", "properties": { "place_id": "ChIJ19uShdMOZ0gRmd4T8Ac1uEE", "latitude": 53.318771, "longitude": -6.213626, "type": "car_wash", "ED_ID": "268113" }, "geometry": { "type": "Point", "coordinates": [ -6.213626, 53.318771 ] } },
{ "type": "Feature", "properties": { "place_id": "ChIJXw0I3pQPZ0gRyelCMXwDcfw", "latitude": 53.3804588, "longitude": -6.1880107, "type": "car_wash", "ED_ID": "268077" }, "geometry": { "type": "Point", "coordinates": [ -6.1880107, 53.3804588 ] } },
{ "type": "Feature", "properties": { "place_id": "ChIJVzBawHkMZ0gRB7Xhm2ltIdk", "latitude": 53.314572, "longitude": -6.3050023, "type": "car_wash", "ED_ID": "268094" }, "geometry": { "type": "Point", "coordinates": [ -6.3050023, 53.314572 ] } },
{ "type": "Feature", "properties": { "place_id": "ChIJrTZ9V44TZ0gR-FjL9SXT9l8", "latitude": 53.404159, "longitude": -6.3028768, "type": "car_wash", "ED_ID": "267066" }, "geometry": { "type": "Point", "coordinates": [ -6.3028768, 53.404159 ] } },
{ "type": "Feature", "properties": { "place_id": "ChIJraPbbfENZ0gRYbPTD5l7RAk", "latitude": 53.4066872, "longitude": -6.2954886, "type": "car_wash", "ED_ID": "267066" }, "geometry": { "type": "Point", "coordinates": [ -6.2954886, 53.4066872 ] } },
{ "type": "Feature", "properties": { "place_id": "ChIJMZHYw5QMZ0gRhkY97B2bIiQ", "latitude": 53.3290929, "longitude": -6.3441173, "type": "car_wash", "ED_ID": "268079" }, "geometry": { "type": "Point", "coordinates": [ -6.3441173, 53.3290929 ] } },
{ "type": "Feature", "properties": { "place_id": "ChIJgTAANcsNZ0gRVo-WUTZ0Q0Q", "latitude": 53.3239971, "longitude": -6.3386718, "type": "car_wash", "ED_ID": "268154" }, "geometry": { "type": "Point", "coordinates": [ -6.3386718, 53.3239971 ] } },
{ "type": "Feature", "properties": { "place_id": "ChIJZZ1XTPsLZ0gROe_9H6E92lo", "latitude": 53.3020413, "longitude": -6.2665473, "type": "car_wash", "ED_ID": "267043" }, "geometry": { "type": "Point", "coordinates": [ -6.2665473, 53.302041300000013 ] } },
{ "type": "Feature", "properties": { "place_id": "ChIJFy-VJCkNZ0gR61GH2gUOSOI", "latitude": 53.3278637, "longitude": -6.3442208, "type": "car_wash", "ED_ID": "268079" }, "geometry": { "type": "Point", "coordinates": [ -6.3442208, 53.327863699999988 ] } },
{ "type": "Feature", "properties": { "place_id": "ChIJjTjf4moPZ0gRLWz98DJKUDQ", "latitude": 53.3960953, "longitude": -6.1880979, "type": "car_wash", "ED_ID": "268120" }, "geometry": { "type": "Point", "coordinates": [ -6.1880979, 53.3960953 ] } },
{ "type": "Feature", "properties": { "place_id": "ChIJR8q8XJ0NZ0gRGdLqsx57jwY", "latitude": 53.3170837, "longitude": -6.3410164, "type": "car_wash", "ED_ID": "267047" }, "geometry": { "type": "Point", "coordinates": [ -6.3410164, 53.3170837 ] } },
{ "type": "Feature", "properties": { "place_id": "ChIJ6bsxoowLZ0gRjC58emrGBns", "latitude": 53.294355, "longitude": -6.2779379, "type": "car_wash", "ED_ID": "267042" }, "geometry": { "type": "Point", "coordinates": [ -6.2779379, 53.294355 ] } },
{ "type": "Feature", "properties": { "place_id": "ChIJQTqmlOcLZ0gRB4E_QyOeEzc", "latitude": 53.2919845, "longitude": -6.2676539, "type": "car_wash", "ED_ID": "267042" }, "geometry": { "type": "Point", "coordinates": [ -6.2676539, 53.2919845 ] } },
{ "type": "Feature", "properties": { "place_id": "ChIJ_ajz8ucLZ0gRjsDNKyrFB8c", "latitude": 53.291625, "longitude": -6.26838, "type": "car_wash", "ED_ID": "267044" }, "geometry": { "type": "Point", "coordinates": [ -6.26838, 53.291625 ] } },
{ "type": "Feature", "properties": { "place_id": "ChIJ5UeeJX4OZ0gRRXVBh-64r6A", "latitude": 53.3565043, "longitude": -6.2663766, "type": "clothing_store", "ED_ID": "268081" }, "geometry": { "type": "Point", "coordinates": [ -6.2663766, 53.3565043 ] } },
{ "type": "Feature", "properties": { "place_id": "ChIJo3ni4jYPZ0gR2l-iI_T5FpE", "latitude": 53.3562634, "longitude": -6.2652703, "type": "clothing_store", "ED_ID": "268081" }, "geometry": { "type": "Point", "coordinates": [ -6.2652703, 53.3562634 ] } },
{ "type": "Feature", "properties": { "place_id": "ChIJgZ2vHX4OZ0gRNDOZaoOfj2M", "latitude": 53.3562001, "longitude": -6.26482, "type": "clothing_store", "ED_ID": "268138" }, "geometry": { "type": "Point", "coordinates": [ -6.26482, 53.3562001 ] } },
{ "type": "Feature", "properties": { "place_id": "ChIJZfQc-oAOZ0gRB3VzU7-UY_o", "latitude": 53.353919, "longitude": -6.2663009, "type": "clothing_store", "ED_ID": "268139" }, "geometry": { "type": "Point", "coordinates": [ -6.2663009, 53.353919 ] } },
{ "type": "Feature", "properties": { "place_id": "ChIJxQcU_40PZ0gR2j8nHI7uV1w", "latitude": 53.3537617, "longitude": -6.2700793, "type": "clothing_store", "ED_ID": "268081" }, "geometry": { "type": "Point", "coordinates": [ -6.2700793, 53.3537617 ] } },
{ "type": "Feature", "properties": { "place_id": "ChIJw2dICSoMZ0gRXF7dtMsssSk", "latitude": 53.3520347, "longitude": -6.2691519, "type": "clothing_store", "ED_ID": "268139" }, "geometry": { "type": "Point", "coordinates": [ -6.2691519, 53.3520347 ] } },
{ "type": "Feature", "properties": { "place_id": "ChIJDy_5jiEPZ0gRc1Twv_1rH78", "latitude": 53.3513222, "longitude": -6.2673904, "type": "clothing_store", "ED_ID": "268139" }, "geometry": { "type": "Point", "coordinates": [ -6.2673904, 53.351322200000013 ] } },
{ "type": "Feature", "properties": { "place_id": "ChIJAcY5-dUNZ0gRUGzDXdHSKVo", "latitude": 53.3606768, "longitude": -6.2722389, "type": "clothing_store", "ED_ID": "268001" }, "geometry": { "type": "Point", "coordinates": [ -6.2722389, 53.3606768 ] } },
{ "type": "Feature", "properties": { "place_id": "ChIJs2CECSoMZ0gRzkCCt8gOMyc", "latitude": 53.3512033, "longitude": -6.2701125, "type": "clothing_store", "ED_ID": "268082" }, "geometry": { "type": "Point", "coordinates": [ -6.2701125, 53.351203299999987 ] } },
{ "type": "Feature", "properties": { "place_id": "ChIJy7VI3YYOZ0gRHJSB3vF4g6U", "latitude": 53.3529187, "longitude": -6.2613363, "type": "clothing_store", "ED_ID": "268138" }, "geometry": { "type": "Point", "coordinates": [ -6.2613363, 53.3529187 ] } },
{ "type": "Feature", "properties": { "place_id": "ChIJW8u8V3wOZ0gR9rd6dQkWvRM", "latitude": 53.3595995, "longitude": -6.2611467, "type": "clothing_store", "ED_ID": "268105" }, "geometry": { "type": "Point", "coordinates": [ -6.2611467, 53.359599499999987 ] } },
{ "type": "Feature", "properties": { "place_id": "ChIJ7ZSMZ4EOZ0gRNmvT5Y3u5ic", "latitude": 53.3512735, "longitude": -6.2644247, "type": "clothing_store", "ED_ID": "268139" }, "geometry": { "type": "Point", "coordinates": [ -6.2644247, 53.3512735 ] } },
{ "type": "Feature", "properties": { "place_id": "ChIJnyOVo4IOZ0gRAMiaIvaBMrI", "latitude": 53.35082, "longitude": -6.27004, "type": "clothing_store", "ED_ID": "268139" }, "geometry": { "type": "Point", "coordinates": [ -6.27004, 53.35082 ] } },
{ "type": "Feature", "properties": { "place_id": "ChIJJ7fOw6APZ0gRS5s1tDun_Ms", "latitude": 53.3590208, "longitude": -6.2598093, "type": "clothing_store", "ED_ID": "268105" }, "geometry": { "type": "Point", "coordinates": [ -6.2598093, 53.3590208 ] } },
{ "type": "Feature", "properties": { "place_id": "ChIJqQux4tUNZ0gRAW5aCHUs8Sc", "latitude": 53.3606233, "longitude": -6.2745788, "type": "clothing_store", "ED_ID": "268001" }, "geometry": { "type": "Point", "coordinates": [ -6.2745788, 53.3606233 ] } },
{ "type": "Feature", "properties": { "place_id": "ChIJGUF2HSoMZ0gRNx7aAU-10xM", "latitude": 53.3506847, "longitude": -6.2709762, "type": "clothing_store", "ED_ID": "268082" },